     3.03           OBSERVATION DATA    M: Mixed            RINEX VERSION / TYPE
Geo++ RINEX Logger  Geo++               20200615 081502 UTC PGM / RUN BY / DATE
************************************************************COMMENT
This file was generated by the Geo++ RINEX Logger App       COMMENT
for Android devices (Version 2.1.6). If you encounter       COMMENT
any issues, please send an email to android@geopp.de        COMMENT
Filtering Mode: MORE                                        COMMENT
************************************************************COMMENT
Geo++                                                       MARKER NAME
GEODETIC                                                    MARKER TYPE
Geo++               Geo++                                   OBSERVER / AGENCY
unknown             HUAWEI              VOG-AL00            REC # / TYPE / VERS
unknown             VOG-AL00                                ANT # / TYPE
 -2329612.9516  5393331.4547  2474866.9260                  APPROX POSITION XYZ
        0.0000        0.0000        0.0000                  ANTENNA: DELTA H/E/N
G    8 C1C L1C D1C S1C C5Q L5Q D5Q S5Q                      SYS / # / OBS TYPES
R    4 C1C L1C D1C S1C                                      SYS / # / OBS TYPES
E   12 C1B L1B D1B S1B C1C L1C D1C S1C C5Q L5Q D5Q S5Q      SYS / # / OBS TYPES
C    4 C2I L2I D2I S2I                                      SYS / # / OBS TYPES
J    8 C1C L1C D1C S1C C5Q L5Q D5Q S5Q                      SYS / # / OBS TYPES
  2020     6    15     8    15   20.0000044     GPS         TIME OF FIRST OBS
 24 R01  1 R02 -4 R03  5 R04  6 R05  1 R06 -4 R07  5 R08  6 GLONASS SLOT / FRQ #
    R09 -2 R10 -5 R11  0 R12 -1 R13 -2 R14 -7 R15  0 R16 -1 GLONASS SLOT / FRQ #
    R17  4 R18 -3 R19  3 R20  2 R21  4 R22 -3 R23  3 R24  2 GLONASS SLOT / FRQ #
G L1C                                                       SYS / PHASE SHIFT
G L5Q -0.25000                                              SYS / PHASE SHIFT
R L1C                                                       SYS / PHASE SHIFT
E L1B                                                       SYS / PHASE SHIFT
E L1C +0.50000                                              SYS / PHASE SHIFT
E L5Q -0.25000                                              SYS / PHASE SHIFT
C L2I                                                       SYS / PHASE SHIFT
J L1C                                                       SYS / PHASE SHIFT
J L5Q -0.25000                                              SYS / PHASE SHIFT
 C1C    0.000 C1P    0.000 C2C    0.000 C2P    0.000        GLONASS COD/PHS/BIS
                                                            END OF HEADER
> 2020  6 15  8 15 20.0000044  2  0
> 2020  6 15  8 15 20.0000044  0 30
C01  37486310.967   195201057.7431        171.221          36.000  
C02  37118343.905   193284956.4581        204.001          34.000  
C03  36037546.226   187656959.4441        171.743          38.000  
C04  38453778.403   200238915.1411        162.160          32.000  
C06  38561307.662   200798848.1691       1677.228          32.000  
C07  37554091.943   195554010.9241      -1290.333          34.000  
C08  37380859.270   194651942.6961        -12.283          34.000  
C09  40174858.724   209201031.3631       1339.288          28.000  
C10  36795132.560   191601910.5321      -1039.648          36.000  
C12  23545591.126   122608071.6251       2151.057          30.000  
C13  37309886.103   194282367.6451        -75.590          33.000  
C16  39287115.096   204578317.1311       1775.363          33.000  
C19  25284905.424   131665136.8461      -2710.926          34.000  
C21  22817514.863   118816786.7571       2425.629          40.000  
C22  22139028.170   115283728.5191       -534.012          42.000  
C26  26001855.790   135398486.3411      -1649.841          32.000  
C35  23507604.724   122410265.7861       -756.256          39.000  
E04                                                                                                                                  24501130.420    96147698.0951        623.964          28.000  
E09                                                                                                                                  23721080.038    93086612.5661       2120.916          25.000  
G02  22541823.021   118458078.9071        790.173          31.000  
G04  24984014.826   131291883.5811      -1412.248          33.000  
G05  21670628.236   113879919.3731       2521.071          41.000  
G06  21728406.937   114183548.5871       -374.539          40.000    21728409.635    85266945.5241       -279.902          29.000  
G09  22911546.566   120400988.9941         36.782          37.000    22911550.164    89909842.9771         25.717          24.000  
G17  21392097.059   112416228.5901       -891.865          40.000  
G19  20619440.758   108355891.7941       -241.473          41.000  
G28  23636198.600   124209061.3981      -3209.736          32.000  
J01  38033870.799   199869339.3031       -520.615          40.000    38033874.397   149253092.0741       -389.780          28.000  
J02  36890694.703   193861908.2651       -447.109          34.000    36890701.899   144767037.2821       -332.024          22.000  
J03  37973323.515   199551160.9931       1272.798          42.000    37973327.412   149015492.4941        950.349          29.000  
> 2020  6 15  8 15 21.0000046  0 32
C01  37486339.447   195201198.582         171.237          36.000  
C02  37118364.291   193285064.249         204.680          33.000  
C03  36037572.907   187657099.628         172.222          38.000  
C04  38453806.284   200239065.074         162.197          31.000  
C06  38561045.644   200797482.876        1678.000          33.000  
C07  37554400.130   195555613.140       -1289.819          35.000  
C08  37380921.626   194652266.918         -11.981          36.000  
C09  40174662.060   209200004.811        1338.861          29.000  
C10  36795391.580   191603262.439       -1040.003          37.000  
C12  23545237.371   122606231.587        2153.697          30.000  
C13  37309961.351   194282755.574         -75.701          34.000  
C16  39286834.790   204576853.789        1776.090          34.000  
C19  25285486.422   131668160.073       -2711.058          34.000  
C21  22817106.846   118814673.308        2424.838          41.000  
C22  22139190.058   115284574.973        -534.919          44.000  
C26  26002233.229   135400448.643       -1650.115          33.000  
C35  23507809.182   122411334.511        -757.192          40.000  
E04                                                                                                                                  24501033.288    96147309.604         624.677          28.000  
E09                                                                                                                                  23720600.970    93084727.314        2121.493          26.000  
G02  22541732.483   118457603.478         790.554          31.000  
G04  24984342.200   131293611.083       -1412.892          33.000  
G05  21670207.328   113877713.588        2520.869          40.000  
G06  21728537.347   114184238.327        -374.831          39.000    21728543.342    85267460.785        -279.988          30.000  
G09  22911600.829   120401268.284          35.096          37.000    22911603.527    89910051.615          28.287          26.000  
G17  21392327.900   112417435.645        -892.565          40.000  
G19  20619547.784   108356448.443        -241.611          41.000  
G28  23636869.536   124212585.747       -3209.100          32.000  
J01  38034031.188   199870174.916        -520.813          40.000    38034034.786   149253717.416        -388.883          30.000  
J02  36890838.904   193862670.423        -447.263          33.000    36890847.298   144767605.244        -333.814          23.000  
J03  37973139.443   199550202.878        1273.240          41.000    37973146.638   149014776.463         952.979          30.000  
R11  22734325.154   121485340.5161      -2259.760          25.000  
R21  20880774.641   111737242.6561       1229.301          29.000  
> 2020  6 15  8 15 22.0000046  0 31
C01  37486306.470   195201024.677         173.548          34.000  
C02  37118324.719   193284859.308         205.131          32.000  
C03  36037535.433   187656926.701         173.341          37.000  
C06  38560723.666   200795805.189        1677.906          31.000  
C07  37554647.459   195556902.994       -1290.254          34.000  
C08  37380923.425   194652278.652         -11.570          34.000  
C09  40174405.138   209198666.520        1337.468          28.000  
C10  36795590.343   191604302.523       -1040.170          36.000  
C12  23544823.358   122604078.163        2152.746          27.000  
C13  37309976.041   194282831.303         -75.746          33.000  
C16  39286493.327   204575077.557        1776.178          32.000  
C19  25286006.862   131670871.260       -2710.995          33.000  
C21  22816640.369   118812248.145        2424.944          40.000  
C22  22139290.788   115285109.759        -534.786          42.000  
C26  26002551.608   135402098.714       -1649.998          32.000  
C35  23507951.284   122412090.784        -756.812          39.000  
E04                                                                                                                                  24500877.396    96146685.196         624.038          25.000  
E09                                                                                                                                  23720063.142    93082605.615        2119.956          23.000  
G02  22541582.587   118456812.394         791.172          30.000  
G04  24984610.814   131295024.033       -1413.714          32.000  
G05  21669727.060   113875193.386        2520.067          40.000  
G06  21728608.397   114184612.834        -374.948          39.000    21728618.291    85267740.159        -279.465          25.000  
G09  22911595.433   120401232.918          35.698          36.000    22911599.630    89910022.963          27.789          21.000  
G12  22808800.196   119861053.4471       1764.016          31.000  
G17  21392497.882   112418328.156        -891.911          40.000  
G19  20619594.252   108356690.346        -241.962          40.000  
G28  23637482.611   124215794.685       -3209.404          31.000  
J01  38034129.820   199870695.345        -520.218          39.000    38034137.614   149254106.272        -389.045          25.000  
J02  36890923.745   193863117.642        -447.329          32.000    36890935.737   144767936.495        -331.977          19.000  
J03  37972897.210   199548930.040        1272.707          40.000    37972907.403   149013824.215         951.310          26.000  
R21  20880545.299   111736014.724        1231.254          30.000  
> 2020  6 15  8 15 23.0000049  0 33
C01  37486362.831   195201319.571         173.073          34.000  
C02  37118374.484   193285122.243         205.353          30.000  
C03  36037592.394   187657222.071         173.031          36.000  
C06  38560491.327   200794595.121        1678.654          30.000  
C07  37554984.725   195558661.970       -1290.869          34.000  
C08  37381015.461   194652758.909         -12.217          34.000  
C09  40174238.154   209197797.187        1337.454          27.000  
C10  36795879.343   191605811.104       -1040.438          35.000  
C12  23544499.582   122602394.569        2151.065          28.000  
C13  37310080.968   194283375.371         -75.559          32.000  
C16  39286241.501   204573770.146        1775.266          32.000  
C19  25286616.640   131674050.593       -2711.427          32.000  
C21  22816264.729   118810292.036        2423.640          39.000  
C22  22139482.355   115286113.008        -535.700          41.000  
C26  26002958.426   135404216.497       -1649.415          31.000  
C34  25780194.043   134244235.3761       2518.760          22.000  
C35  23508187.221   122413316.761        -757.988          38.000  
E04                                                                                                                                  24500809.942    96146415.389         622.200          25.000  
E09                                                                                                                                  23719614.353    93080839.240        2119.763          22.000  
G02  22541521.429   118456493.737         791.225          30.000  
G04  24984968.166   131296910.401       -1413.861          31.000  
G05  21669338.229   113873145.370        2520.101          39.000  
G06  21728770.585   114185460.085        -374.901          38.000    21728781.378    85268372.223        -278.800          26.000  
G09  22911678.775   120401671.195          33.627          36.000    22911684.471    89910347.833          25.798          22.000  
G12  22808554.966   119859761.888        1764.393          30.000  
G17  21392755.703   112419693.141        -893.271          39.000  
G19  20619729.758   108357405.399        -242.740          39.000  
G28  23638183.526   124219476.808       -3209.905          30.000  
J01  38034320.188   199871688.229        -520.498          38.000    38034327.983   149254848.671        -390.526          25.000  
J02  36891098.824   193864037.589        -447.877          31.000    36891112.314   144768623.159        -336.218          18.000  
J03  37972744.616   199548129.597        1272.646          39.000    37972755.708   149013226.248         947.646          26.000  
R11  22735246.716   121490265.0751      -2265.713          19.000  
R21  20880405.896   111735269.709        1231.097          31.000  
> 2020  6 15  8 15 24.0000049  0 31
C01  37486329.254   195201146.622         172.393          34.000  
C02  37118335.211   193284916.421         206.180          31.000  
C03  36037560.616   187657048.589         173.896          36.000  
C06  38560169.050   200792916.959        1677.191          31.000  
C07  37555232.653   195559952.272       -1289.551          33.000  
C08  37381018.759   194652770.934         -11.585          33.000  
C09  40173981.831   209196458.473        1340.275          27.000  
C10  36796079.005   191606851.167       -1040.206          35.000  
C12  23544088.267   122600242.952        2152.095          28.000  
C13  37310095.958   194283450.437         -74.660          31.000  
C16  39285900.637   204571994.693        1775.525          31.000  
C19  25287138.278   131676761.842       -2711.181          32.000  
C21  22815799.451   118807867.619        2425.510          39.000  
C22  22139586.983   115286648.355        -535.133          41.000  
C26  26003275.307   135405865.264       -1648.670          31.000  
C34  25779720.971   134241717.014        2518.920          23.000  
C35  23508332.320   122414073.592        -756.850          37.000  
E04                                                                                                                                  24500648.654    96145792.043         621.879          24.000  
G02  22541370.634   118455702.715         791.538          27.000  
G04  24985236.781   131298324.205       -1413.753          30.000  
G05  21668857.062   113870625.080        2519.848          37.000  
G06  21728841.936   114185834.534        -374.125          38.000    21728849.730    85268651.593        -280.088          25.000  
G09  22911671.580   120401637.273          34.296          35.000    22911675.777    89910323.832          23.471          19.000  
G12  22808218.899   119857997.396        1764.811          27.000  
G17  21392925.086   112420586.342        -893.171          38.000  
G19  20619771.129   108357647.627        -243.147          38.000  
G28  23638792.704   124222686.731       -3209.737          28.000  
J01  38034414.623   199872208.704        -519.749          38.000    38034424.816   149255239.762        -389.436          24.000  
J02  36891183.065   193864484.902        -446.878          31.000    36891194.158   144768956.086        -332.490          18.000  
J03  37972501.484   199546856.571        1274.066          38.000    37972511.078   149012278.144         948.354          24.000  
R21  20880176.555   111734042.172        1229.801          31.000  
> 2020  6 15  8 15 25.0000051  0 28
C01  37486355.636   195201286.655         171.653          32.000  
C02  37118355.597   193285022.326         206.440          30.000  
C03  36037587.297   187657186.869         173.896          34.000  
C06  38559906.432   200791552.342        1676.638          29.000  
C07  37555540.240   195561554.093       -1289.699          32.000  
C08  37381080.516   194653094.286         -10.786          32.000  
C09  40173784.867   209195431.211        1339.437          24.000  
C10  36796338.025   191608202.956       -1039.000          34.000  
C12  23543733.313   122598403.522        2151.482          25.000  
C13  37310170.007   194283836.149         -73.821          31.000  
C16  39285618.832   204570531.067        1775.913          30.000  
C19  25287718.077   131679785.686       -2711.628          30.000  
C21  22815393.832   118805754.522        2424.784          38.000  
C22  22139749.770   115287496.049        -536.059          40.000  
C26  26003651.846   135407826.418       -1649.186          29.000  
C35  23508536.179   122415143.123        -757.123          36.000  
E04                                                                                                                                  24500546.724    96145405.691         620.997          30.000  
G02  22541280.396   118455226.204         791.701          28.000  
G04  24985564.154   131300052.226       -1412.947          30.000  
G05  21668437.953   113868418.443        2521.183          37.000  
G06  21728972.945   114186523.734        -374.211          37.000    21728977.742    85269166.773        -280.305          31.000  
G09  22911723.744   120401917.480          34.511          35.000  
G19  20619877.256   108358204.909        -242.230          38.000  
G28  23639465.439   124226211.051       -3208.632          28.000  
J01  38034573.213   199873043.175        -519.711          37.000    38034579.808   149255863.873        -389.816          30.000  
J02  36891327.565   193865246.649        -446.173          30.000  
J03  37972319.810   199545897.334        1274.212          38.000    37972325.506   149011563.983         950.791          31.000  
R21  20880005.673   111733127.110        1229.741          35.000  
> 2020  6 15  8 15 26.0000051  0 32
C01  37486323.258   195201114.964         171.515          34.000  
C02  37118316.025   193284816.019         206.117          29.000  
C03  36037554.020   187657012.980         173.775          36.000  
C06  38559583.556   200789875.103        1677.641          29.000  
C07  37555787.569   195562843.949       -1289.476          32.000  
C08  37381082.615   194653105.174         -10.755          33.000  
C09  40173527.945   209194091.776        1339.707          26.000  
C10  36796537.387   191609241.688       -1038.115          34.000  
C12  23543319.899   122596252.142        2150.971          28.000  
C13  37310185.596   194283909.638         -73.547          31.000  
C16  39285278.867   204568755.494        1775.787          31.000  
C19  25288240.016   131682497.577       -2712.159          32.000  
C21  22814928.254   118803330.168        2425.503          38.000  
C22  22139852.899   115288032.024        -534.488          40.000  
C26  26003967.828   135409475.168       -1648.297          30.000  
C34  25778821.593   134236989.3631       2519.446          23.000  
C35  23508680.679   122415900.276        -755.844          36.000  
E04                                                                                                                                  24500386.335    96144784.622         621.549          29.000  
G02  22541129.001   118454435.018         791.058          27.000  
G04  24985831.869   131301465.073       -1412.883          29.000  
G05  21667956.486   113865898.212        2520.185          36.000  
G06  21729041.598   114186897.552        -371.731          36.000    21729046.394    85269446.385        -279.147          29.000  
G09  22911716.848   120401883.484          34.181          33.000  
G12  22807607.022   119854785.3501       1763.448          26.000  
G17  21393322.911   112422687.4601       -892.838          35.000  
G19  20619921.925   108358447.907        -242.490          35.000  
G28  23640076.416   124229420.002       -3208.328          27.000  
J01  38034670.346   199873563.105        -519.378          35.000    38034676.341   149256252.551        -387.935          28.000  
J02  36891412.107   193865692.552        -446.372          29.000  
J03  37972077.278   199544623.135        1275.348          35.000    37972080.875   149010613.033         950.918          29.000  
R11  22736594.583   121497467.7181      -2259.842          21.000  
R21  20879773.633   111731886.187        1230.581          31.000  
> 2020  6 15  8 15 27.0000051  0 31
C01  37486290.581   195200943.197         171.852          33.000  
C02  37118275.553   193284609.766         206.191          31.000  
C03  36037519.844   187656838.896         174.391          35.000  
C04  38453768.810   200238869.0751        163.243          30.000  
C06  38559261.279   200788196.257        1679.332          30.000  
C07  37556033.999   195564132.054       -1287.254          32.000  
C08  37381085.013   194653114.775          -8.380          32.000  
C09  40173269.524   209192750.901        1343.631          25.000  
C10  36796736.449   191610279.564       -1037.483          34.000  
C12  23542908.284   122594099.790        2154.076          27.000  
C13  37310198.787   194283981.791         -71.158          30.000  
C16  39284937.404   204566978.271        1778.191          31.000  
C19  25288759.856   131685208.661       -2710.228          32.000  
C21  22814464.175   118800903.659        2427.652          38.000  
C22  22139955.428   115288565.371        -533.835          40.000  
C26  26004284.109   135411122.284       -1645.162          30.000  
C35  23508829.376   122416654.842        -753.749          36.000  
E04                                                                                                                                  24500224.747    96144161.039         624.129          34.000  
G02  22540977.306   118453642.593         793.408          27.000  
G04  24986100.183   131302878.433       -1413.152          29.000  
G05  21667476.818   113863375.452        2522.751          36.000  
G06  21729109.351   114187267.997        -370.702          36.000    21729114.747    85269724.721        -277.158          36.000  
G09  22911709.653   120401848.821          35.587          34.000  
G12  22807272.454   119853022.191        1763.592          28.000  
G17  21393491.694   112423578.652        -890.607          36.000  
G19  20619964.795   108358688.184        -239.803          37.000  
G28  23640685.894   124232627.506       -3206.373          29.000  
J01  38034766.879   199874080.017        -516.322          36.000    38034772.275   149256639.209        -385.605          35.000  
J02  36891494.250   193866137.114        -443.891          30.000  
J03  37971835.345   199543348.369        1275.979          37.000    37971835.945   149009660.487         953.464          36.000  
R21  20879542.494   111730649.465        1232.270          32.000  
> 2020  6 15  8 15 28.0000051  0 27
C03  36037486.867   187656665.139         173.554          34.000  
C06  38558937.803   200786515.800        1680.199          31.000  
C07  37556279.229   195565419.098       -1287.476          33.000  
C08  37381086.512   194653123.003          -8.921          34.000  
C09  40173010.504   209191406.075        1344.176          26.000  
C10  36796935.212   191611317.417       -1038.733          35.000  
C12  23542495.170   122591946.861        2150.645          27.000  
C13  37310212.278   194284053.452         -73.028          31.000  
C16  39284594.141   204565199.666        1776.970          31.000  
C19  25289280.296   131687918.647       -2711.114          32.000  
C21  22813998.897   118798478.131        2424.108          40.000  
C22  22140055.259   115289100.495        -536.464          41.000  
C26  26004597.991   135412768.072       -1646.809          31.000  
C35  23508972.977   122417410.469        -756.807          38.000  
E04                                                                                                                                  24500064.358    96143537.707         621.743          38.000  
G04  24986367.897   131304292.122       -1414.420          28.000  
G05  21666997.150   113860853.964        2520.000          34.000  
G06  21729178.303   114187639.996        -374.149          34.000    21729184.299    85270002.246        -278.682          39.000  
G09  22911701.859   120401813.703          33.912          31.000  
G12  22806937.586   119851259.709        1759.747          26.000  
G17  21393660.477   112424470.520        -893.654          34.000  
G28  23641293.573   124235834.346       -3207.647          26.000  
J01  38034863.412   199874597.441        -519.493          34.000    38034869.108   149257025.150        -387.274          38.000  
J02  36891576.393   193866581.043        -443.031          28.000  
J03  37971591.914   199542072.578        1274.555          35.000    37971591.614   149008707.206         951.914          39.000  
R11  22737443.895   121502006.0571      -2248.785          21.000  
R21  20879311.653   111729413.525        1230.550          33.000  
> 2020  6 15  8 15 29.0000054  0 25
C06  38558704.264   200785304.230        1678.989          24.000  
C07  37556616.196   195567176.400       -1290.415          28.000  
C08  37381177.949   194653600.211          -9.214          27.000  
C10  36797224.512   191612825.410       -1040.900          29.000  
C12  23542173.492   122590264.231        2150.161          21.000  
C13  37310316.305   194284595.290         -74.477          26.000  
C16  39284342.616   204563891.474        1775.776          26.000  
C19  25289892.172   131691099.384       -2713.901          25.000  
C21  22813623.557   118796523.546        2421.963          33.000  
C22  22140248.625   115290106.197        -538.089          34.000  
C26  26005002.411   135414883.445       -1647.825          26.000  
C35  23509207.115   122418636.809        -759.222          31.000  
E04                                                                                                                                  24499996.305    96143269.925         619.776          39.000  
G02  22540761.755   118452528.3551        792.695          24.000  
G04  24986725.550   131306179.839       -1417.040          27.000  
G05  21666608.619   113858808.444        2516.797          35.000  
G06  21729339.591   114188487.664        -375.736          34.000    21729346.187    85270634.628        -280.086          41.000  
G09  22911784.602   120402253.739          31.458          31.000  
G17  21393919.498   112425838.101        -896.224          34.000  
G19  20620144.671   108359646.7291       -246.157          35.000  
G28  23641994.188   124239514.979       -3208.884          25.000  
J01  38035051.382   199875590.621        -521.491          34.000    38035058.277   149257766.367        -388.639          39.000  
J02  36891747.874   193867498.161        -445.656          28.000  
J03  37971439.919   199541271.374        1273.070          35.000    37971439.919   149008108.965         950.596          40.000  
R21  20879170.751   111728660.070        1228.366          30.000  
> 2020  6 15  8 15 30.0000054  0 25
C06  38558381.688   200783626.333        1674.693          25.000  
C07  37556862.025   195568467.129       -1292.096          28.000  
C08  37381178.848   194653610.562         -10.995          27.000  
C09  40172581.800   209189188.5441       1342.485          22.000  
C10  36797423.274   191613867.232       -1042.083          29.000  
C12  23541765.775   122588114.783        2147.496          21.000  
C13  37310328.597   194284670.021         -74.930          25.000  
C16  39283999.653   204562116.107        1775.393          26.000  
C19  25290411.712   131693813.648       -2715.561          26.000  
C21  22813156.480   118794102.161        2421.119          33.000  
C22  22140350.854   115290644.996        -539.264          34.000  
C26  26005315.994   135416530.721       -1647.045          26.000  
C35  23509350.116   122419395.949        -759.226          31.000  
E04                                                                                                                                  24499839.814    96142649.934         619.691          40.000  
G02  22540611.859   118451736.057         792.799          26.000  
G04  24986993.864   131307597.491       -1418.244          30.000  
G05  21666129.251   113856292.614        2515.331          37.000  
G06  21729410.342   114188863.892        -376.419          37.000    21729418.736    85270914.971        -280.234          41.000  
G09  22911777.706   120402222.844          29.977          34.000  
G17  21394088.581   112426735.063        -897.329          38.000  
G28  23642602.767   124242724.363       -3210.249          29.000  
J01  38035150.313   199876112.774        -522.647          38.000    38035159.007   149258155.457        -389.936          40.000  
J02  36891832.116   193867944.302        -447.333          31.000  
J03  37971198.586   199539998.672        1272.561          38.000    37971198.586   149007158.640         950.704          42.000  
R21  20878941.709   111727433.907        1227.910          30.000  
> 2020  6 15  8 15 31.0000056  0 26
C01  37486305.870   195201031.7551        164.449          27.000  
C03  36037535.733   187656925.6961        172.846          28.000  
C06  38558118.170   200782264.278        1674.054          24.000  
C07  37557169.013   195570071.390       -1292.234          28.000  
C08  37381238.807   194653933.121         -10.116          28.000  
C09  40172383.638   209188158.813        1340.662          21.000  
C10  36797682.594   191615221.832       -1042.339          29.000  
C12  23541419.814   122586280.099        2147.828          19.000  
C13  37310401.147   194285057.397         -75.076          26.000  
C16  39283716.649   204560652.579        1775.942          25.000  
C19  25290990.911   131696841.519       -2715.504          27.000  
C21  22812748.163   118791993.670        2420.530          32.000  
C22  22140513.042   115291496.848        -540.161          34.000  
C26  26005691.035   135418489.711       -1646.908          26.000  
C34  25776558.160   134225155.8121       2520.803          18.000  
C35  23509553.675   122420468.043        -760.180          31.000  
G02  22540523.420   118451258.588         792.289          27.000  
G04  24987322.736   131309331.233       -1419.048          30.000  
G05  21665710.141   113854092.474        2514.936          38.000  
G06  21729541.052   114189555.499        -376.496          38.000    21729550.645    85271430.753        -280.956          41.000  
G09  22911831.069   120402508.360          29.167          35.000  
G17  21394317.922   112427948.081        -898.172          38.000  
G28  23643272.803   124246250.142       -3210.717          29.000  
J02  36891977.515   193868707.113        -448.301          31.000  
J03  37971017.212   199539041.153        1272.654          39.000    37971016.612   149006443.319         950.723          41.000  
R21  20878773.226   111726532.565        1227.949          35.000  
> 2020  6 15  8 15 32.0000056  0 26
C01  37486274.392   195200867.487         164.421          34.000  
C02  37118225.487   193284346.6721        205.069          31.000  
C03  36037502.456   187656753.006         172.516          37.000  
C06  38557795.594   200780589.284        1675.653          31.000  
C07  37557417.241   195571363.586       -1291.699          33.000  
C08  37381241.505   194653943.675         -10.635          33.000  
C09  40172126.715   209186818.909        1339.203          28.000  
C10  36797883.156   191616263.786       -1041.862          34.000  
C13  37310415.237   194285132.406         -75.101          31.000  
C16  39283376.085   204558876.766        1775.448          31.000  
C19  25291512.250   131699556.919       -2715.142          32.000  
C21  22812283.185   118789573.190        2420.482          38.000  
C22  22140616.170   115292037.225        -540.637          40.000  
C26  26006007.316   135420137.196       -1647.769          32.000  
C34  25776073.995   134222636.525        2518.890          24.000  
C35  23509698.774   122421228.321        -760.696          36.000  
G02  22540374.423   118450466.800         791.060          29.000  
G05  21665232.272   113851577.219        2515.342          40.000  
G06  21729616.599   114189930.874        -374.879          40.000    21729621.996    85271711.179        -280.410          41.000  
G17  21394494.799   112428845.239        -897.222          40.000  
G19  20620352.727   108360703.1891       -246.767          41.000  
G28  23643883.780   124249460.665       -3210.625          31.000  
J01  38035414.431   199877471.5871       -520.912          40.000  
J03  37970771.982   199537767.920        1273.423          41.000    37970774.380   149005492.529         950.467          41.000  
R11  22739325.992   121512062.9561      -2264.153          17.000  
R21  20878543.885   111725305.317        1228.358          37.000  
> 2020  6 15  8 15 33.0000059  0 24
C01  37486332.552   195201170.917         165.439          34.000  
C03  36037559.717   187657049.155         171.676          37.000  
C06  38557562.355   200779381.506        1676.777          31.000  
C07  37557755.107   195573123.262       -1290.660          34.000  
C08  37381334.141   194654422.950         -11.309          33.000  
C09  40171960.331   209185948.275        1338.638          27.000  
C10  36798173.055   191617773.777       -1041.360          36.000  
C12  23540679.627   122582448.2551       2151.180          27.000  
C13  37310518.965   194285676.166         -74.963          32.000  
C16  39283126.058   204557569.858        1775.016          32.000  
C19  25292123.527   131702739.871       -2714.208          33.000  
C21  22811909.344   118787621.090        2420.437          40.000  
C22  22140812.534   115293046.248        -540.874          41.000  
C26  26006413.834   135422253.482       -1647.667          32.000  
C35  23509934.111   122422457.076        -760.554          37.000  
G05  21664844.640   113849534.259        2515.246          40.000  
G06  21729779.986   114190778.634        -375.114          40.000    21729782.984    85272344.034        -280.115          41.000  
G12  22805509.075   119843733.8381       1757.692          27.000  
G17  21394756.518   112430215.298        -897.826          40.000  
G19  20620490.032   108361422.922        -247.522          40.000  
G28  23644584.095   124253143.669       -3210.308          31.000  
J01  38035604.799   199878465.026        -521.632          40.000  
J03  37970619.687   199536967.222        1273.373          41.000    37970621.486   149004894.691         950.752          41.000  
R21  20878404.481   111724559.255        1228.300          36.000  
> 2020  6 15  8 15 34.0000059  0 29
C01  37486301.074   195201004.917         166.355          34.000  
C03  36037527.339   187656877.330         171.788          36.000  
C06  38557239.179   200777704.586        1676.810          31.000  
C07  37558003.036   195574414.410       -1291.537          34.000  
C08  37381336.239   194654434.065         -11.109          33.000  
C09  40171704.608   209184608.922        1339.409          27.000  
C10  36798374.216   191618815.289       -1042.240          35.000  
C12  23540268.311   122580296.495        2151.828          27.000  
C13  37310532.756   194285751.161         -75.096          32.000  
C16  39282785.194   204555794.141        1775.461          31.000  
C19  25292644.567   131705453.900       -2714.304          32.000  
C21  22811446.164   118785200.610        2420.079          39.000  
C22  22140918.661   115293587.153        -541.522          41.000  
C26  26006731.315   135423900.563       -1646.704          31.000  
C34  25775196.803   134218067.3831       2518.158          23.000  
C35  23510082.808   122423217.279        -759.895          37.000  
G02  22540166.368   118449358.3911        789.997          27.000  
G05  21664365.872   113847019.033        2515.304          41.000  
G06  21729851.637   114191154.185        -375.878          40.000    21729854.635    85272624.332        -280.597          41.000  
G09  22911907.816   120402895.7921         27.847          38.000  
G12  22805173.907   119841976.232        1757.280          28.000  
G17  21394928.000   112431113.320        -899.044          41.000  
G19  20620538.598   108361670.580        -247.996          41.000  
G28  23645195.072   124256353.601       -3209.899          31.000  
J01  38035704.929   199878986.686        -521.550          40.000  
J02  36892327.073   193870524.9241       -448.315          33.000  
J03  37970378.054   199535693.978        1273.087          41.000    37970379.253   149003943.770         950.365          41.000  
R11  22740281.131   121517166.9921      -2265.583          21.000  
R21  20878168.844   111723298.451        1228.413          36.000  
> 2020  6 15  8 15 35.0000061  0 27
C01  37486327.456   195201150.048         167.694          34.000  
C03  36037555.220   187657017.626         172.387          36.000  
C06  38556976.860   200776340.014        1677.033          31.000  
C07  37558311.822   195576018.170       -1291.703          34.000  
C08  37381397.997   194654757.165         -10.779          33.000  
C09  40171507.344   209183582.554        1337.561          26.000  
C10  36798635.335   191620169.378       -1042.183          36.000  
C12  23539914.556   122578457.616        2150.652          27.000  
C13  37310606.205   194286137.774         -74.018          32.000  
C16  39282504.588   204554330.927        1774.687          31.000  
C19  25293225.564   131708480.323       -2714.055          33.000  
C21  22811042.044   118783092.911        2419.702          40.000  
C22  22141082.348   115294440.737        -542.079          41.000  
C26  26007107.854   135425859.217       -1646.254          32.000  
C35  23510290.565   122424290.002        -759.862          37.000  
G02  22540077.329   118448883.270         790.333          28.000  
G05  21663948.560   113844819.584        2514.475          41.000  
G06  21729985.044   114191844.523        -375.293          40.000    21729985.644    85273140.029        -280.313          41.000  
G09  22911969.574   120403182.534          27.800          38.000  
G17  21395158.840   112432326.948        -898.748          41.000  
G19  20620646.523   108362233.996        -248.650          42.000  
G28  23645866.307   124259878.439       -3209.673          32.000  
J01  38035864.719   199879822.549        -521.023          41.000  
J02  36892473.072   193871287.709        -447.171          34.000  
J03  37970196.080   199534736.096        1273.208          42.000    37970196.680   149003228.184         951.022          41.000  
R11  22740770.692   121519782.794       -2264.916          22.000  
R21  20877997.363   111722380.469        1228.009          36.000  
> 2020  6 15  8 15 36.0000061  0 29
C01  37486294.478   195200981.708         168.634          34.000  
C03  36037519.844   187656845.139         172.909          36.000  
C06  38556654.583   200774663.386        1676.552          30.000  
C07  37558560.949   195577310.019       -1291.948          34.000  
C08  37381400.695   194654768.051         -11.045          33.000  
C09  40171250.722   209182243.862        1339.274          27.000  
C10  36798835.596   191621211.410       -1041.923          34.000  
C12  23539502.941   122576306.634        2150.231          26.000  
C13  37310619.695   194286211.430         -73.364          32.000  
C16  39282164.324   204552556.061        1774.389          30.000  
C19  25293746.903   131711194.208       -2714.441          32.000  
C21  22810577.366   118780673.165        2419.715          39.000  
C22  22141186.076   115294982.720        -542.700          41.000  
C26  26007424.435   135427505.586       -1646.976          32.000  
C34  25774295.926   134213342.9491       2519.294          23.000  
C35  23510438.362   122425050.631        -761.460          36.000  
G04  24988825.296   131317213.6771      -1419.554          33.000  
G05  21663470.991   113842305.277        2513.641          41.000  
G06  21730056.395   114192219.740        -374.835          41.000    21730057.294    85273420.199        -280.565          41.000  
G09  22911963.877   120403155.087          26.868          38.000  
G12  22804564.129   119838777.8511       1755.958          29.000  
G17  21395329.721   112433226.074        -899.487          41.000  
G19  20620692.092   108362482.919        -249.784          42.000  
G28  23646475.785   124263088.017       -3209.668          31.000  
J01  38035964.550   199880344.310        -522.580          41.000  
J02  36892559.712   193871734.829        -447.007          33.000  
J03  37969955.047   199533463.125        1272.798          42.000    37969954.448   149002276.965         951.370          41.000  
R11  22741199.395   121522074.035       -2265.302          24.000  
R21  20877773.418   111721182.191        1227.804          36.000  
> 2020  6 15  8 15 37.0000064  0 28
C01  37486350.839   195201280.666         169.663          34.000  
C03  36037578.004   187657140.981         172.328          36.000  
C06  38556422.544   200773455.168        1676.673          31.000  
C07  37558899.115   195579070.308       -1291.363          34.000  
C08  37381493.930   194655246.852         -10.021          33.000  
C09  40171085.236   209181372.259        1340.543          27.000  
C10  36799126.095   191622721.341       -1041.803          35.000  
C13  37310723.424   194286753.430         -74.346          32.000  
C16  39281914.297   204551249.996        1775.145          31.000  
C19  25294357.581   131714376.880       -2714.591          33.000  
C21  22810203.525   118778722.349        2418.819          40.000  
C22  22141380.341   115295993.865        -543.305          41.000  
C26  26007830.354   135429621.165       -1647.075          32.000  
C34  25773901.699   134211291.344        2520.327          21.000  
C35  23510676.098   122426279.703        -761.006          37.000  
G02  22539870.772   118447774.3411        790.945          27.000  
G04  24989185.647   131319106.068       -1419.769          33.000  
G05  21663081.561   113840264.523        2513.578          40.000  
G06  21730216.484   114193067.599        -375.476          41.000    21730218.583    85274053.536        -280.296          41.000  
G09  22912045.721   120403601.145          25.676          38.000    22912043.322    89911794.2971         19.864          37.000  
G17  21395589.342   112434598.039        -899.652          41.000  
G19  20620829.697   108363204.820        -249.232          41.000  
G28  23647175.501   124266770.440       -3210.100          31.000  
J01  38036152.520   199881338.370        -521.348          40.000    38036153.119   149262056.8501       -389.565          40.000  
J02  36892734.192   193872654.473        -447.059          33.000    36892741.986   144775057.5821       -334.424          35.000  
J03  37969801.853   199532662.685        1273.003          42.000    37969802.153   149001679.127         950.618          41.000  
R11  22741720.135   121524856.904       -2265.356          24.000  
R21  20877625.621   111720391.586        1226.372          35.000  
> 2020  6 15  8 15 38.0000064  0 29
C01  37486317.263   195201110.299         170.760          33.000  
C02  37118237.479   193284397.6611        201.285          31.000  
C03  36037545.327   187656967.914         173.577          36.000  
C06  38556100.867   200771778.264        1676.857          30.000  
C07  37559147.343   195580361.626       -1290.763          34.000  
C08  37381496.329   194655256.582          -9.352          33.000  
C09  40170827.715   209180031.122        1340.783          26.000  
C10  36799326.656   191623762.860       -1041.421          35.000  
C12  23538771.747   122572472.2631       2151.766          26.000  
C13  37310737.814   194286827.779         -74.298          32.000  
C16  39281572.833   204549474.014        1776.619          30.000  
C19  25294879.220   131717091.404       -2714.572          32.000  
C21  22809739.746   118776303.866        2418.537          40.000  
C22  22141485.569   115296536.999        -543.468          41.000  
C26  26008147.534   135431267.638       -1646.532          32.000  
C34  25773420.232   134208772.004        2520.182          22.000  
C35  23510821.797   122427041.024        -761.392          37.000  
G02  22539721.176   118446983.313         791.000          26.000  
G04  24989457.259   131320526.334       -1420.236          31.000  
G05  21662603.991   113837751.055        2513.456          41.000  
G06  21730288.135   114193443.037        -375.711          40.000    21730289.933    85274333.725        -280.154          41.000  
G09  22912041.824   120403575.028          25.448          37.000    22912037.926    89911774.983          17.916          37.000  
G17  21395760.223   112435497.827        -900.265          40.000  
G19  20620877.064   108363454.594        -249.968          41.000  
G28  23647786.178   124269980.506       -3210.182          30.000  
J01  38036252.051   199881859.704        -521.492          40.000    38036252.051   149262445.866        -389.090          40.000  
J02  36892820.532   193873101.458        -447.442          33.000    36892827.427   144775392.046        -333.852          35.000  
J03  37969559.021   199531389.419        1273.449          41.000    37969559.921   149000728.795         950.104          41.000  
R21  20877395.380   111719159.606        1227.054          35.000  
> 2020  6 15  8 15 39.0000067  0 30
C01  37486374.223   195201407.469         171.512          33.000  
C03  36037601.687   187657263.329         172.997          35.000  
C04  38453874.936   200239435.1661        164.350          30.000  
C06  38555868.528   200770569.661        1676.731          31.000  
C07  37559486.708   195582121.030       -1291.752          34.000  
C08  37381588.665   194655733.973          -9.032          33.000  
C09  40170659.231   209179158.772        1340.619          27.000  
C10  36799617.455   191625272.607       -1041.587          35.000  
C12  23538450.670   122570788.690        2151.562          26.000  
C13  37310841.542   194287369.696         -73.552          32.000  
C16  39281321.307   204548165.747        1776.275          30.000  
C19  25295490.197   131720274.386       -2715.158          33.000  
C21  22809365.005   118774353.714        2418.544          40.000  
C22  22141680.134   115297548.789        -543.504          41.000  
C26  26008553.753   135433382.236       -1646.149          33.000  
C35  23511059.532   122428271.178        -761.144          37.000  
G02  22539660.318   118446664.976         790.949          28.000  
G04  24989817.609   131322419.551       -1420.520          31.000  
G05  21662215.161   113835711.025        2513.078          41.000  
G06  21730448.524   114194291.174        -375.815          40.000    21730451.521    85274966.962        -280.578          42.000  
G09  22912126.065   120404022.132          25.017          37.000    22912123.667    89912109.714          18.320          37.000  
G12  22803747.494   119834457.7371       1754.149          29.000  
G17  21396021.942   112436870.979        -900.394          41.000  
G19  20621014.968   108364176.932        -249.782          41.000  
G28  23648485.894   124273663.318       -3210.285          30.000  
J01  38036439.721   199882853.316        -520.988          40.000    38036441.519   149263187.948        -389.658          40.000  
J02  36892996.810   193874021.353        -447.502          33.000    36893002.206   144776078.486        -333.305          34.000  
J03  37969405.827   199530588.721        1272.829          41.000    37969407.626   149000130.660         950.931          41.000  
R11  22742652.789   121529840.1731      -2265.660          22.000  
R21  20877255.976   111718413.733        1227.053          36.000  
> 2020  6 15  8 15 40.0000067  0 28
C01  37486341.246   195201235.707         171.888          34.000  
C03  36037568.411   187657090.366         172.648          36.000  
C06  38555546.850   200768892.566        1677.417          31.000  
C07  37559734.637   195583412.487       -1291.611          34.000  
C08  37381590.763   194655743.241          -9.710          33.000  
C09  40170402.009   209177818.469        1339.326          26.000  
C10  36799817.417   191626314.216       -1041.950          35.000  
C12  23538034.558   122568636.278        2152.490          27.000  
C13  37310855.332   194287443.404         -73.964          32.000  
C16  39280980.143   204546389.653        1775.681          30.000  
C19  25296012.135   131722989.777       -2715.909          33.000  
C21  22808899.727   118771936.127        2417.669          40.000  
C22  22141783.862   115298092.920        -544.549          41.000  
C26  26008870.034   135435028.013       -1645.609          32.000  
C35  23511204.932   122429032.291        -761.903          37.000  
G02  22539509.822   118445874.048         790.710          28.000  
G04  24990089.821   131323840.155       -1420.659          32.000  
G05  21661736.692   113833198.338        2512.189          41.000  
G06  21730521.373   114194666.983        -375.750          41.000    21730523.172    85275247.367        -280.384          42.000  
G09  22912121.868   120403997.572          24.006          38.000    22912118.870    89912090.437          17.583          37.000  
G12  22803414.125   119832703.914        1753.592          29.000  
G17  21396193.124   112437771.569        -900.998          41.000  
G19  20621062.336   108364427.235        -250.928          42.000  
G28  23649097.171   124276873.489       -3210.271          30.000  
J01  38036538.652   199883374.925        -521.668          40.000    38036540.751   149263577.648        -389.867          40.000  
J02  36893081.351   193874468.633        -447.085          33.000    36893087.347   144776412.288        -333.150          35.000  
J03  37969163.295   199529315.546        1272.936          42.000    37969165.394   148999179.738         950.891          42.000  
R21  20877026.635   111717186.520        1227.648          36.000  
> 2020  6 15  8 15 41.0000067  0 35
C01  37486307.969   195201063.572         172.151          34.000  
C02  37118209.598   193284255.0231        205.352          32.000  
C03  36037534.834   187656917.539         172.612          36.000  
C06  38555224.873   200767215.261        1676.829          31.000  
C07  37559982.565   195584704.088       -1291.779          34.000  
C08  37381593.162   194655753.261          -9.552          33.000  
C09  40170145.087   209176478.465        1340.429          27.000  
C10  36800017.978   191627356.567       -1042.750          35.000  
C12  23537619.945   122566483.596        2152.661          26.000  
C13  37310868.823   194287517.216         -73.743          32.000  
C16  39280639.279   204544613.681        1776.373          31.000  
C19  25296533.174   131725705.761       -2716.025          33.000  
C21  22808434.749   118769518.565        2417.520          40.000  
C22  22141887.290   115298637.257        -544.699          42.000  
C26  26009185.416   135436673.395       -1645.405          32.000  
C35  23511350.631   122429793.952        -761.667          37.000  
E09                                                                                                                                  23710420.617    93044799.5781       2118.459          38.000  
E12                                                                                                                                  24130953.588    94695044.8511       -397.867          34.000  
E19                                                                                                                                  27298058.547   107123444.3501      -1219.458          28.000  
E24                                                                                                                                  24657939.863    96763052.0461      -1778.484          35.000  
E25                                                                                                                                  25745537.735   101031019.5031       -682.878          34.000  
G02  22539359.026   118445083.270         790.708          28.000  
G04  24990359.934   131325261.460       -1421.732          32.000  
G05  21661257.923   113830686.261        2511.383          41.000  
G06  21730591.824   114195042.304        -374.972          41.000    21730594.223    85275527.667        -280.650          41.000  
G09  22912114.973   120403972.834          25.108          37.000    22912113.774    89912072.753          17.150          37.000  
G12  22803079.557   119830950.541        1753.030          30.000  
G17  21396365.205   112438672.778        -901.596          42.000  
G19  20621109.403   108364677.992        -250.553          42.000  
G28  23649706.049   124280083.824       -3210.397          30.000  
J01  38036639.382   199883896.522        -521.398          41.000    38036639.682   149263966.737        -388.277          40.000  
J02  36893166.492   193874915.618        -446.925          33.000    36893172.488   144776745.337        -333.260          34.000  
J03  37968921.363   199528042.607        1272.841          42.000    37968922.862   148998228.782         950.634          41.000  
R11  22743497.604   121534355.1081      -2266.202          22.000  
R21  20876797.894   111715962.047        1227.100          36.000  
> 2020  6 15  8 15 42.0000069  0 35
C01  37486333.152   195201203.481         172.276          34.000  
C03  36037561.515   187657057.476         171.481          36.000  
C04  38453841.959   200239257.8971        160.480          29.000  
C06  38554963.154   200765850.512        1677.221          31.000  
C07  37560290.152   195586307.889       -1291.797          34.000  
C08  37381655.219   194656075.405          -9.950          33.000  
C09  40169946.625   209175450.310        1339.647          27.000  
C10  36800278.797   191628711.363       -1042.692          35.000  
C12  23537267.389   122564642.972        2152.361          26.000  
C13  37310942.272   194287902.928         -73.760          32.000  
C16  39280357.774   204543149.340        1776.588          31.000  
C19  25297114.472   131728733.819       -2715.666          33.000  
C21  22808031.828   118767413.670        2417.031          40.000  
C22  22142051.277   115299494.821        -545.720          42.000  
C26  26009560.756   135438630.962       -1645.637          32.000  
C34  25771626.574   134199466.8451       2523.117          21.000  
C35  23511555.089   122430868.189        -762.711          37.000  
E09                                                                                                                                  23709940.650    93042916.666        2118.176          37.000  
E12                                                                                                                                  24131114.877    94695678.525        -399.008          34.000  
E19                                                                                                                                  27298428.791   107124899.201       -1220.127          28.000  
E24                                                                                                                                  24658453.408    96765066.033       -1779.271          35.000  
E25                                                                                                                                  25745771.873   101031937.345        -682.811          34.000  
G02  22539267.290   118444607.472         790.931          29.000  
G04  24990690.605   131326998.975       -1422.806          33.000  
G05  21660840.012   113828490.023        2511.613          41.000  
G06  21730724.033   114195732.966        -375.851          41.000    21730725.232    85276043.402        -280.030          41.000  
G09  22912170.734   120404264.381          23.529          38.000    22912169.535    89912290.745          16.820          37.000  
G12  22802804.347   119829512.966        1752.329          29.000  
G17  21396596.345   112439889.667        -901.592          42.000  
G19  20621217.928   108365244.165        -251.409          42.000  
G28  23650376.085   124283609.261       -3210.311          31.000  
J01  38036798.872   199884733.488        -521.639          41.000    38036798.572   149264591.267        -389.839          40.000  
J02  36893313.091   193875677.528        -446.780          34.000    36893317.288   144777314.447        -334.344          34.000  
J03  37968740.588   199527085.033        1272.975          42.000    37968740.288   148997513.285         950.936          41.000  
R21  20876630.909   111715068.085        1226.460          36.000  
> 2020  6 15  8 15 43.0000069  0 34
C01  37486298.975   195201031.107         172.274          34.000  
C03  36037528.838   187656885.700         171.682          36.000  
C06  38554641.177   200764172.941        1678.064          31.000  
C07  37560538.081   195587599.959       -1292.517          34.000  
C08  37381657.317   194656085.682         -10.779          33.000  
C09  40169690.302   209174110.354        1339.480          26.000  
C10  36800478.159   191629753.954       -1042.657          35.000  
C12  23536854.575   122562491.114        2151.667          26.000  
C13  37310956.063   194287976.868         -73.943          32.000  
C16  39280016.910   204541373.041        1776.023          31.000  
C19  25297635.811   131731448.935       -2715.251          32.000  
C21  22807568.049   118764996.758        2416.342          40.000  
C22  22142157.703   115300040.313        -545.495          41.000  
C26  26009877.037   135440276.554       -1645.227          32.000  
C35  23511701.088   122431630.374        -762.386          37.000  
E09                                                                                                                                  23709400.723    93040798.359        2118.337          37.000  
E12                                                                                                                                  24131216.207    94696077.029        -398.311          34.000  
E19                                                                                                                                  27298740.275   107126120.837       -1221.815          27.000  
E24                                                                                                                                  24658906.394    96766845.095       -1779.064          35.000  
E25                                                                                                                                  25745946.052   101032620.961        -683.805          34.000  
G02  22539116.494   118443816.415         791.144          29.000  
G04  24990962.517   131328422.427       -1423.971          32.000  
