# 
# Header Description:
# 
# Version: v2.0.0.1 Platform: 10 Manufacturer: HUAWEI Model: VOG-AL00
# 
# Raw,ElapsedRealtimeMillis,TimeNanos,LeapSecond,TimeUncertaintyNanos,FullBiasNanos,BiasNanos,BiasUncertaintyNanos,DriftNanosPerSecond,DriftUncertaintyNanosPerSecond,HardwareClockDiscontinuityCount,Svid,TimeOffsetNanos,State,ReceivedSvTimeNanos,ReceivedSvTimeUncertaintyNanos,Cn0DbHz,PseudorangeRateMetersPerSecond,PseudorangeRateUncertaintyMetersPerSecond,AccumulatedDeltaRangeState,AccumulatedDeltaRangeMeters,AccumulatedDeltaRangeUncertaintyMeters,CarrierFrequencyHz,CarrierCycles,CarrierPhase,CarrierPhaseUncertainty,MultipathIndicator,SnrInDb,ConstellationType,AgcDb,CarrierFrequencyHz
# 
# Fix,Provider,Latitude,Longitude,Altitude,Speed,Accuracy,(UTC)TimeInMs
# 
# Nav,Svid,Type,Status,MessageId,Sub-messageId,Data(Bytes)
# 
Raw,2382383080,42200000000,18,0.0,-1278059027800003840,0.0,333.564095198152,-93.60766609401495,0.0,2,2,0.0,16399,116669927299639,5,42.0,-164.03221940194396,0.01,17,9.318373208241819E7,0.1,1.57542003E9,,,,2,,1,6.0,1.57542003E9
Raw,2382383080,42200000000,18,0.0,-1278059027800003840,0.0,333.564095198152,-93.60766609401495,0.0,2,5,0.0,16399,116669931334835,5,43.0,19.681571720539054,0.01,17,9.36092761025436E7,0.1,1.57542003E9,,,,2,,1,6.0,1.57542003E9
Raw,2382383081,42200000000,18,0.0,-1278059027800003840,0.0,333.564095198152,-93.60766609401495,0.0,2,6,0.0,16399,116669924910661,5,39.0,151.23718872500316,0.01,17,9.361453024437505E7,0.1,1.57542003E9,,,,2,,1,6.0,1.57542003E9
Raw,2382383081,42200000000,18,0.0,-1278059027800003840,0.0,333.564095198152,-93.60766609401495,0.0,2,9,0.0,16399,116669917575666,23,28.0,534.1111852914134,0.030000001144409223,17,9.362968822817858E7,0.1,1.57542003E9,,,,2,,1,6.0,1.57542003E9
Raw,2382383081,42200000000,18,0.0,-1278059027800003840,0.0,333.564095198152,-93.60766609401495,0.0,2,12,0.0,16399,116669923574676,5,37.0,271.4999296955503,0.01,17,9.361926510071585E7,0.1,1.57542003E9,,,,2,,1,6.0,1.57542003E9
Raw,2382383082,42200000000,18,0.0,-1278059027800003840,0.0,333.564095198152,-93.60766609401495,0.0,2,13,0.0,16399,116669925375868,5,40.0,-637.0644807092606,0.01,17,9.316493354336275E7,0.1,1.57542003E9,,,,2,,1,6.0,1.57542003E9
Raw,2382383082,42200000000,18,0.0,-1278059027800003840,0.0,333.564095198152,-93.60766609401495,0.0,2,15,0.0,16399,116669918883819,17,35.0,-752.0581098460681,0.02,17,9.31604032679688E7,0.1,1.57542003E9,,,,2,,1,6.0,1.57542003E9
Raw,2382383082,42200000000,18,0.0,-1278059027800003840,0.0,333.564095198152,-93.60766609401495,0.0,2,17,0.0,16399,116669920515204,5,34.0,600.0802472516834,0.02,17,9.36323279365216E7,0.1,1.57542003E9,,,,2,,1,6.0,1.57542003E9
Raw,2382383082,42200000000,18,0.0,-1278059027800003840,0.0,333.564095198152,-93.60766609401495,0.0,2,19,0.0,16399,116669924818115,5,40.0,552.092653936058,0.01,17,9.363040620835328E7,0.1,1.57542003E9,,,,2,,1,6.0,1.57542003E9
Raw,2382383083,42200000000,18,0.0,-1278059027800003840,0.0,333.564095198152,-93.60766609401495,0.0,2,25,0.0,16399,116669920011471,6,31.0,37.51673989316319,0.02,17,9.360996731271692E7,0.1,1.57542003E9,,,,2,,1,6.0,1.57542003E9
Raw,2382383083,42200000000,18,0.0,-1278059027800003840,0.0,333.564095198152,-93.60766609401495,0.0,2,18,0.0,32995,41051930596193,12,39.0,196.01215477974327,0.01,17,1.4200437884704348E8,0.1,1.60031245E9,,,,2,,3,6.0,1.60031245E9
Raw,2382383083,42200000000,18,0.0,-1278059027800003840,0.0,333.564095198152,-93.60766609401495,0.0,2,29,0.0,16399,116669918295688,17,37.0,-691.921878769717,0.01,17,9.316278576629034E7,0.1,1.57542003E9,,,,2,,1,6.0,1.57542003E9
Raw,2382383083,42200000000,18,0.0,-1278059027800003840,0.0,333.564095198152,-93.60766609401495,0.0,2,193,0.0,16399,116669870366422,5,40.0,130.14424705602767,0.01,17,9.361371388166961E7,0.1,1.57542003E9,,,,2,,4,6.0,1.57542003E9
Raw,2382383084,42200000000,18,0.0,-1278059027800003840,0.0,333.564095198152,-93.60766609401495,0.0,2,193,0.0,16399,116669870366428,6,31.0,130.1165648592269,0.02,17,9.618288892183448E7,0.1,1.17645005E9,,,,2,,4,0.0,1.17645005E9
Raw,2382383084,42200000000,18,0.0,-1278059027800003840,0.0,333.564095198152,-93.60766609401495,0.0,2,194,0.0,16399,116669874918984,5,31.0,42.40742673495924,0.01,17,9.361023837991135E7,0.1,1.57542003E9,,,,2,,4,6.0,1.57542003E9
Raw,2382383084,42200000000,18,0.0,-1278059027800003840,0.0,333.564095198152,-93.60766609401495,0.0,2,5,0.0,32995,41051932711462,12,40.0,-458.04712297218964,0.01,17,1.019359433388258E8,0.1,1.60256256E9,,,,2,,3,6.0,1.60256256E9
Raw,2382383084,42200000000,18,0.0,-1278059027800003840,0.0,333.564095198152,-93.60766609401495,0.0,2,195,0.0,16399,116669876845642,5,42.0,-201.47592386946945,0.01,17,-6650.28182497879,0.1,1.57542003E9,,,,2,,4,6.0,1.57542003E9
Raw,2382383085,42200000000,18,0.0,-1278059027800003840,0.0,333.564095198152,-93.60766609401495,0.0,2,195,0.0,16399,116669876845648,5,32.0,-201.69814204894627,0.02,17,-5643.711331395082,0.1,1.17645005E9,,,,2,,4,0.0,1.17645005E9
Raw,2382383085,42200000000,18,0.0,-1278059027800003840,0.0,333.564095198152,-93.60766609401495,0.0,2,3,0.0,32995,41051923436788,21,31.0,717.8095430542915,0.02,17,1.3771775801020858E8,0.1,1.60481254E9,,,,2,,3,6.0,1.60481254E9
Raw,2382383085,42200000000,18,0.0,-1278059027800003840,0.0,333.564095198152,-93.60766609401495,0.0,2,4,0.0,32995,41051935071234,12,39.0,281.82771972091615,0.01,17,1.3351572248351666E8,0.1,1.60537498E9,,,,2,,3,6.0,1.60537498E9
Raw,2382383085,42200000000,18,0.0,-1278059027800003840,0.0,333.564095198152,-93.60766609401495,0.0,2,6,0.0,16399,116669924910665,6,30.0,151.39097825274519,0.030000001144409223,17,9.618370141784441E7,0.1,1.17645005E9,,,,2,,1,0.0,1.17645005E9
Raw,2382383086,42200000000,18,0.0,-1278059027800003840,0.0,333.564095198152,-93.60766609401495,0.0,2,19,0.0,35,12929748,44,25.0,-346.9027262539906,0.05,17,9.317642413246089E7,0.1,1.60368755E9,,,,1,,3,6.0,1.60368755E9
Raw,2382383086,42200000000,18,0.0,-1278059027800003840,0.0,333.564095198152,-93.60766609401495,0.0,2,6,0.0,16399,116655876324269,5,36.0,-268.0937162556187,0.01,17,9.3179596119889E7,0.1,1.56109798E9,,,,2,,5,6.0,1.56109798E9
Raw,2382383086,42200000000,18,0.0,-1278059027800003840,0.0,333.564095198152,-93.60766609401495,0.0,2,20,0.0,35,1345579,801,18.0,-663.1245652035375,0.30000000715255754,17,9.77499008020342E7,0.1,1.60312499E9,,,,1,,3,6.0,1.60312499E9
Raw,2382383086,42200000000,18,0.0,-1278059027800003840,0.0,333.564095198152,-93.60766609401495,0.0,2,7,0.0,16399,116655869585952,5,32.0,253.25741442697762,0.02,17,9.36224403408149E7,0.1,1.56109798E9,,,,2,,5,6.0,1.56109798E9
Raw,2382383087,42200000000,18,0.0,-1278059027800003840,0.0,333.564095198152,-93.60766609401495,0.0,2,17,0.0,35,18709626,6,30.0,539.8061719198204,0.02,17,1.4189826196118137E8,0.1,1.60424998E9,,,,2,,3,6.0,1.60424998E9
Raw,2382383087,42200000000,18,0.0,-1278059027800003840,0.0,333.564095198152,-93.60766609401495,0.0,2,8,0.0,16399,116655875710549,5,36.0,-107.52104396446597,0.01,17,9.318599455427028E7,0.1,1.56109798E9,,,,2,,5,6.0,1.56109798E9
Raw,2382383087,42200000000,18,0.0,-1278059027800003840,0.0,333.564095198152,-93.60766609401495,0.0,2,1,0.0,17161,116655875047533,5,36.0,-27.160313175991824,0.01,17,9.318920219710794E7,0.1,1.56109798E9,,,,2,,5,6.0,1.56109798E9
Raw,2382383087,42200000000,18,0.0,-1278059027800003840,0.0,333.564095198152,-93.60766609401495,0.0,2,9,0.0,16399,116655871163752,5,33.0,-297.9513369380506,0.02,17,9.317842853702159E7,0.1,1.56109798E9,,,,2,,5,6.0,1.56109798E9
Raw,2382383088,42200000000,18,0.0,-1278059027800003840,0.0,333.564095198152,-93.60766609401495,0.0,2,3,0.0,17161,116655879744109,5,39.0,-24.71234164345509,0.01,17,9.318929421946275E7,0.1,1.56109798E9,,,,2,,5,6.0,1.56109798E9
Raw,2382383088,42200000000,18,0.0,-1278059027800003840,0.0,333.564095198152,-93.60766609401495,0.0,2,10,0.0,16399,116655872074862,5,34.0,279.4135528195885,0.02,17,9.36234737235077E7,0.1,1.56109798E9,,,,2,,5,6.0,1.56109798E9
Raw,2382383088,42200000000,18,0.0,-1278059027800003840,0.0,333.564095198152,-93.60766609401495,0.0,2,2,0.0,17161,116655876263650,5,35.0,-32.0530682260946,0.02,17,-1208.0490995472705,0.1,1.56109798E9,,,,2,,5,6.0,1.56109798E9
Raw,2382383088,42200000000,18,0.0,-1278059027800003840,0.0,333.564095198152,-93.60766609401495,0.0,2,11,0.0,16399,116655916217441,5,34.0,-572.8119428548789,0.02,17,9.316752292530008E7,0.1,1.56109798E9,,,,2,,5,6.0,1.56109798E9
Raw,2382383089,42200000000,18,0.0,-1278059027800003840,0.0,333.564095198152,-93.60766609401495,0.0,2,4,0.0,257,1693201,6,31.0,-24.036884817647202,0.02,17,-575.1438739470095,0.1,1.56109798E9,,,,2,,5,6.0,1.56109798E9
Raw,2382383089,42200000000,18,0.0,-1278059027800003840,0.0,333.564095198152,-93.60766609401495,0.0,2,12,0.0,16399,116655927619884,5,42.0,-233.8591190398253,0.01,17,9.318092351528545E7,0.1,1.56109798E9,,,,2,,5,6.0,1.56109798E9
Raw,2382383089,42200000000,18,0.0,-1278059027800003840,0.0,333.564095198152,-93.60766609401495,0.0,2,5,0.0,257,1024131,5,32.0,-30.603538734935686,0.01,17,-731.9867124657737,0.1,1.56109798E9,,,,2,,5,6.0,1.56109798E9
Raw,2382383090,42200000000,18,0.0,-1278059027800003840,0.0,333.564095198152,-93.60766609401495,0.0,2,13,0.0,16399,116655875433724,5,37.0,-83.60126027670725,0.01,17,9.318694347552314E7,0.1,1.56109798E9,,,,2,,5,6.0,1.56109798E9
Raw,2382383090,42200000000,18,0.0,-1278059027800003840,0.0,333.564095198152,-93.60766609401495,0.0,2,16,0.0,16399,116655874435928,5,38.0,-300.495766913089,0.01,17,-9013.673243094929,0.1,1.56109798E9,,,,2,,5,6.0,1.56109798E9
Raw,2382383090,42200000000,18,0.0,-1278059027800003840,0.0,333.564095198152,-93.60766609401495,0.0,2,14,0.0,16399,116655913906045,27,26.0,-562.0128010780094,0.05,17,9.316791344764744E7,0.1,1.56109798E9,,,,2,,5,6.0,1.56109798E9
Raw,2382383090,42200000000,18,0.0,-1278059027800003840,0.0,333.564095198152,-93.60766609401495,0.0,2,1,0.0,3072,5721317,27,29.0,334.9781629498586,0.05,17,9.36215455436791E7,0.1,1.57542003E9,,,,2,,6,6.0,1.57542003E9
Raw,2382383091,42200000000,18,0.0,-1278059027800003840,0.0,333.564095198152,-93.60766609401495,0.0,2,21,0.0,16399,116655927298756,5,44.0,38.64920119517705,0.01,17,9.361385650268348E7,0.1,1.56109798E9,,,,2,,5,6.0,1.56109798E9
Raw,2382383091,42200000000,18,0.0,-1278059027800003840,0.0,333.564095198152,-93.60766609401495,0.0,2,34,0.0,16399,116655922618911,5,39.0,-447.25289093562276,0.01,17,-13422.630228339223,0.1,1.56109798E9,,,,2,,5,6.0,1.56109798E9
Raw,2382383091,42200000000,18,0.0,-1278059027800003840,0.0,333.564095198152,-93.60766609401495,0.0,2,22,0.0,16399,116655919452714,5,37.0,476.3076752580967,0.01,17,9.363127144312118E7,0.1,1.56109798E9,,,,2,,5,6.0,1.56109798E9
Raw,2382383091,42200000000,18,0.0,-1278059027800003840,0.0,333.564095198152,-93.60766609401495,0.0,2,4,0.0,3072,5496060,5,30.0,-583.1123121070453,0.01,17,9.316768566643798E7,0.1,1.57542003E9,,,,2,,6,6.0,1.57542003E9
Raw,2382383091,42200000000,18,0.0,-1278059027800003840,0.0,333.564095198152,-93.60766609401495,0.0,2,9,0.0,3,17575685,26,23.0,533.8296806685397,0.05,17,9.619885698299342E7,0.1,1.17645005E9,,,,2,,1,0.0,1.17645005E9
Raw,2382383092,42200000000,18,0.0,-1278059027800003840,0.0,333.564095198152,-93.60766609401495,0.0,2,35,0.0,16399,116655915392588,5,34.0,457.56314183216404,0.02,17,13714.291588549786,0.1,1.56109798E9,,,,2,,5,6.0,1.56109798E9
Raw,2382383092,42200000000,18,0.0,-1278059027800003840,0.0,333.564095198152,-93.60766609401495,0.0,2,25,0.0,3,11449,101,16.0,37.33373132926201,0.5,17,74.74742700791595,0.1,1.17645005E9,,,,0,,1,0.0,1.17645005E9
Raw,2382383092,42200000000,18,0.0,-1278059027800003840,0.0,333.564095198152,-93.60766609401495,0.0,2,7,0.0,3072,7963742,17,33.0,461.0228843314175,0.02,17,9.36263639438064E7,0.1,1.57542003E9,,,,2,,6,6.0,1.57542003E9
Raw,2382383092,42200000000,18,0.0,-1278059027800003840,0.0,333.564095198152,-93.60766609401495,0.0,2,194,0.0,3,14918967,6,24.0,42.265181164178266,0.030000001144409223,17,9.61794122838221E7,0.1,1.17645005E9,,,,2,,4,0.0,1.17645005E9
Raw,2382383093,42200000000,18,0.0,-1278059027800003840,0.0,333.564095198152,-93.60766609401495,0.0,2,26,0.0,3072,18709371,6,27.0,117.42620788959944,0.030000001144409223,17,2936.9210931298962,0.1,1.17645005E9,,,,2,,6,0.0,1.17645005E9
Raw,2382383093,42200000000,18,0.0,-1278059027800003840,0.0,333.564095198152,-93.60766609401495,0.0,2,12,0.0,3072,16729854,6,31.0,-395.9133368133974,0.02,17,9.31749463872772E7,0.1,1.57542003E9,,,,2,,6,6.0,1.57542003E9
Raw,2382383093,42200000000,18,0.0,-1278059027800003840,0.0,333.564095198152,-93.60766609401495,0.0,2,19,0.0,3072,20303767,5,36.0,-345.38095014519587,0.01,17,9.31768403945885E7,0.1,1.57542003E9,,,,2,,6,6.0,1.57542003E9
Raw,2382383093,42200000000,18,0.0,-1278059027800003840,0.0,333.564095198152,-93.60766609401495,0.0,2,26,0.0,3072,18709372,7,23.0,101.37596491075136,0.05,17,9.361249802393019E7,0.1,1.57542003E9,,,,2,,6,6.0,1.57542003E9
Raw,2382383094,42200000000,18,0.0,-1278059027800003840,0.0,333.564095198152,-93.60766609401495,0.0,2,12,0.0,3072,16730210,27,15.0,-396.3746949687289,0.05,17,-396.5399531841133,0.1,1.17645005E9,,,,0,,6,0.0,1.17645005E9
Raw,2382383094,42200000000,18,0.0,-1278059027800003840,0.0,333.564095198152,-93.60766609401495,0.0,2,31,0.0,3072,8039820,27,25.0,303.58242639524514,0.05,17,9.362028549863444E7,0.1,1.57542003E9,,,,1,,6,6.0,1.57542003E9
Raw,2382383094,42200000000,18,0.0,-1278059027800003840,0.0,333.564095198152,-93.60766609401495,0.0,2,1,0.0,3072,5721309,9,22.0,335.07655679888995,0.30000000715255754,17,9.619071951398143E7,0.1,1.17645005E9,,,,2,,6,0.0,1.17645005E9
Raw,2382383094,42200000000,18,0.0,-1278059027800003840,0.0,333.564095198152,-93.60766609401495,0.0,2,4,0.0,3072,5496058,27,24.0,-583.355355135767,0.05,17,9.31676826991794E7,0.1,1.17645005E9,,,,2,,6,0.0,1.17645005E9
Raw,2382383095,42200000000,18,0.0,-1278059027800003840,0.0,333.564095198152,-93.60766609401495,0.0,2,7,0.0,3072,7963755,27,23.0,461.033781001327,0.05,17,9.619553252746141E7,0.1,1.17645005E9,,,,2,,6,0.0,1.17645005E9
Raw,2382383095,42200000000,18,0.0,-1278059027800003840,0.0,333.564095198152,-93.60766609401495,0.0,2,19,0.0,3072,20303767,6,28.0,-345.4197821093958,0.030000001144409223,17,9.317683628568645E7,0.1,1.17645005E9,,,,2,,6,0.0,1.17645005E9
Raw,2382384090,43200000000,18,0.0,-1278059027800004096,0.0,333.564095198152,-93.85143985872769,0.0,2,2,0.0,16399,116670927300188,5,42.0,-164.23100625395583,0.01,17,9.318356797271161E7,0.1,1.57542003E9,,,,2,,1,6.0,1.57542003E9
Raw,2382384090,43200000000,18,0.0,-1278059027800004096,0.0,333.564095198152,-93.85143985872769,0.0,2,5,0.0,16399,116670931334770,5,43.0,19.768524453779104,0.01,17,9.360929583257812E7,0.1,1.57542003E9,,,,2,,1,6.0,1.57542003E9
Raw,2382384090,43200000000,18,0.0,-1278059027800004096,0.0,333.564095198152,-93.85143985872769,0.0,2,6,0.0,16399,116670924910152,5,39.0,151.31654260354176,0.01,17,9.361468150427935E7,0.1,1.57542003E9,,,,2,,1,6.0,1.57542003E9
Raw,2382384091,43200000000,18,0.0,-1278059027800004096,0.0,333.564095198152,-93.85143985872769,0.0,2,9,0.0,16399,116670917573887,23,28.0,534.1483694462879,0.030000001144409223,17,9.363022239267784E7,0.1,1.57542003E9,,,,2,,1,6.0,1.57542003E9
Raw,2382384092,43200000000,18,0.0,-1278059027800004096,0.0,333.564095198152,-93.85143985872769,0.0,2,12,0.0,16399,116670923573755,5,37.0,271.7367108210693,0.01,17,9.361953667813325E7,0.1,1.57542003E9,,,,2,,1,6.0,1.57542003E9
Raw,2382384092,43200000000,18,0.0,-1278059027800004096,0.0,333.564095198152,-93.85143985872769,0.0,2,13,0.0,16399,116670925377999,5,40.0,-637.2192104644498,0.01,17,9.316429645762739E7,0.1,1.57542003E9,,,,2,,1,6.0,1.57542003E9
Raw,2382384092,43200000000,18,0.0,-1278059027800004096,0.0,333.564095198152,-93.85143985872769,0.0,2,15,0.0,16399,116670918886330,17,34.0,-752.1146497385963,0.02,17,9.315965115815534E7,0.1,1.57542003E9,,,,2,,1,6.0,1.57542003E9
Raw,2382384092,43200000000,18,0.0,-1278059027800004096,0.0,333.564095198152,-93.85143985872769,0.0,2,17,0.0,16399,116670920513199,5,35.0,600.0530748855023,0.02,17,9.36329279954088E7,0.1,1.57542003E9,,,,2,,1,6.0,1.57542003E9
Raw,2382384093,43200000000,18,0.0,-1278059027800004096,0.0,333.564095198152,-93.85143985872769,0.0,2,19,0.0,16399,116670924816280,5,40.0,551.977039263667,0.01,17,9.363095828232366E7,0.1,1.57542003E9,,,,2,,1,6.0,1.57542003E9
Raw,2382384093,43200000000,18,0.0,-1278059027800004096,0.0,333.564095198152,-93.85143985872769,0.0,2,25,0.0,16399,116670920011350,6,31.0,37.766276757583036,0.02,17,9.361000492659181E7,0.1,1.57542003E9,,,,2,,1,6.0,1.57542003E9
Raw,2382384093,43200000000,18,0.0,-1278059027800004096,0.0,333.564095198152,-93.85143985872769,0.0,2,18,0.0,32995,41052930595538,12,39.0,196.2096103740988,0.01,17,1.4322391663225785E8,0.1,1.60031245E9,,,,2,,3,6.0,1.60031245E9
Raw,2382384094,43200000000,18,0.0,-1278059027800004096,0.0,333.564095198152,-93.85143985872769,0.0,2,29,0.0,16399,116670918298010,17,37.0,-691.652887443509,0.01,17,9.31620939226253E7,0.1,1.57542003E9,,,,2,,1,6.0,1.57542003E9
Raw,2382384094,43200000000,18,0.0,-1278059027800004096,0.0,333.564095198152,-93.85143985872769,0.0,2,193,0.0,16399,116670870365991,5,41.0,129.9523128204069,0.01,17,9.361384394838503E7,0.1,1.57542003E9,,,,2,,4,6.0,1.57542003E9
Raw,2382384094,43200000000,18,0.0,-1278059027800004096,0.0,333.564095198152,-93.85143985872769,0.0,2,193,0.0,3,10365992,5,32.0,130.10089862679624,0.02,17,9.618301909007588E7,0.1,1.17645005E9,,,,2,,4,0.0,1.17645005E9
Raw,2382384095,43200000000,18,0.0,-1278059027800004096,0.0,333.564095198152,-93.85143985872769,0.0,2,194,0.0,16399,116670874918844,5,31.0,42.47171356839057,0.01,17,9.361028083212216E7,0.1,1.57542003E9,,,,2,,4,6.0,1.57542003E9
Raw,2382384095,43200000000,18,0.0,-1278059027800004096,0.0,333.564095198152,-93.85143985872769,0.0,2,5,0.0,32995,41052932713006,12,40.0,-457.98132739122826,0.01,17,1.0214593990817827E8,0.1,1.60256256E9,,,,2,,3,6.0,1.60256256E9
Raw,2382384095,43200000000,18,0.0,-1278059027800004096,0.0,333.564095198152,-93.85143985872769,0.0,2,195,0.0,16399,116670876846318,5,43.0,-201.51827942679841,0.01,17,-6851.810999877493,0.1,1.57542003E9,,,,2,,4,6.0,1.57542003E9
Raw,2382384096,43200000000,18,0.0,-1278059027800004096,0.0,333.564095198152,-93.85143985872769,0.0,2,195,0.0,16399,116670876846320,5,34.0,-201.661929682943,0.02,17,-5845.306451706237,0.1,1.17645005E9,,,,2,,4,0.0,1.17645005E9
Raw,2382384096,43200000000,18,0.0,-1278059027800004096,0.0,333.564095198152,-93.85143985872769,0.0,2,3,0.0,32995,41052923434385,21,31.0,717.5277512915072,0.02,17,1.3882931859472314E8,0.1,1.60481254E9,,,,2,,3,6.0,1.60481254E9
Raw,2382384096,43200000000,18,0.0,-1278059027800004096,0.0,333.564095198152,-93.85143985872769,0.0,2,4,0.0,32995,41052935070298,12,40.0,281.83626528514105,0.01,17,1.3452141505873317E8,0.1,1.60537498E9,,,,2,,3,6.0,1.60537498E9
Raw,2382384096,43200000000,18,0.0,-1278059027800004096,0.0,333.564095198152,-93.85143985872769,0.0,2,6,0.0,16399,116670924910157,6,31.0,151.04454804371545,0.02,17,9.618385255583653E7,0.1,1.17645005E9,,,,2,,1,0.0,1.17645005E9
Raw,2382384097,43200000000,18,0.0,-1278059027800004096,0.0,333.564095198152,-93.85143985872769,0.0,2,19,0.0,99,932930906,31,27.0,-346.8673784504176,0.030000001144409223,17,9.317607722310963E7,0.1,1.60368755E9,,,,1,,3,6.0,1.60368755E9
Raw,2382384097,43200000000,18,0.0,-1278059027800004096,0.0,333.564095198152,-93.85143985872769,0.0,2,6,0.0,16399,116656876325171,5,37.0,-268.14610691076615,0.01,17,9.317932789876328E7,0.1,1.56109798E9,,,,2,,5,6.0,1.56109798E9
Raw,2382384097,43200000000,18,0.0,-1278059027800004096,0.0,333.564095198152,-93.85143985872769,0.0,2,20,0.0,35,1347781,801,19.0,-663.9073777373302,0.30000000715255754,17,9.785442751071171E7,0.1,1.60312499E9,,,,1,,3,6.0,1.60312499E9
Raw,2382384098,43200000000,18,0.0,-1278059027800004096,0.0,333.564095198152,-93.85143985872769,0.0,2,7,0.0,16399,116656869585109,5,32.0,253.01394249035425,0.02,17,9.362269349511883E7,0.1,1.56109798E9,,,,2,,5,6.0,1.56109798E9
Raw,2382384098,43200000000,18,0.0,-1278059027800004096,0.0,333.564095198152,-93.85143985872769,0.0,2,17,0.0,35,18707838,6,32.0,539.49104177259,0.02,17,1.4311515041409293E8,0.1,1.60424998E9,,,,2,,3,6.0,1.60424998E9
Raw,2382384098,43200000000,18,0.0,-1278059027800004096,0.0,333.564095198152,-93.85143985872769,0.0,2,8,0.0,16399,116656875710908,5,36.0,-107.82117891907612,0.01,17,9.318588685114643E7,0.1,1.56109798E9,,,,2,,5,6.0,1.56109798E9
Raw,2382384099,43200000000,18,0.0,-1278059027800004096,0.0,333.564095198152,-93.85143985872769,0.0,2,1,0.0,17161,116656875047627,5,36.0,-27.20865124005088,0.01,17,9.318917501099847E7,0.1,1.56109798E9,,,,2,,5,6.0,1.56109798E9
Raw,2382384099,43200000000,18,0.0,-1278059027800004096,0.0,333.564095198152,-93.85143985872769,0.0,2,9,0.0,16399,116656871164748,5,33.0,-298.07101291248296,0.02,17,9.317813054861465E7,0.1,1.56109798E9,,,,2,,5,6.0,1.56109798E9
Raw,2382384099,43200000000,18,0.0,-1278059027800004096,0.0,333.564095198152,-93.85143985872769,0.0,2,3,0.0,17161,116656879744194,5,39.0,-24.766074371428594,0.01,17,9.318926945594808E7,0.1,1.56109798E9,,,,2,,5,6.0,1.56109798E9
Raw,2382384099,43200000000,18,0.0,-1278059027800004096,0.0,333.564095198152,-93.85143985872769,0.0,2,10,0.0,16399,116656872073934,5,34.0,279.3371630892323,0.02,17,9.362375308289793E7,0.1,1.56109798E9,,,,2,,5,6.0,1.56109798E9
Raw,2382384100,43200000000,18,0.0,-1278059027800004096,0.0,333.564095198152,-93.85143985872769,0.0,2,2,0.0,17161,116656876263758,5,35.0,-32.03170055131777,0.02,17,-1240.1041179704946,0.1,1.56109798E9,,,,2,,5,6.0,1.56109798E9
Raw,2382384100,43200000000,18,0.0,-1278059027800004096,0.0,333.564095198152,-93.85143985872769,0.0,2,11,0.0,16399,116656916219356,5,34.0,-572.8427870875587,0.02,17,9.316695008445315E7,0.1,1.56109798E9,,,,2,,5,6.0,1.56109798E9
Raw,2382384100,43200000000,18,0.0,-1278059027800004096,0.0,333.564095198152,-93.85143985872769,0.0,2,4,0.0,515,71693285,6,31.0,-23.979626950787722,0.02,17,-599.1460992518712,0.1,1.56109798E9,,,,2,,5,6.0,1.56109798E9
Raw,2382384100,43200000000,18,0.0,-1278059027800004096,0.0,333.564095198152,-93.85143985872769,0.0,2,12,0.0,16399,116656927620666,5,42.0,-233.81609945214035,0.01,17,9.318068971475576E7,0.1,1.56109798E9,,,,2,,5,6.0,1.56109798E9
Raw,2382384101,43200000000,18,0.0,-1278059027800004096,0.0,333.564095198152,-93.85143985872769,0.0,2,5,0.0,257,1024236,5,31.0,-30.674196818025894,0.01,17,-762.6355139344,0.1,1.56109798E9,,,,2,,5,6.0,1.56109798E9
Raw,2382384101,43200000000,18,0.0,-1278059027800004096,0.0,333.564095198152,-93.85143985872769,0.0,2,13,0.0,16399,116656875434006,5,37.0,-83.94965124725607,0.01,17,9.31868596274151E7,0.1,1.56109798E9,,,,2,,5,6.0,1.56109798E9
Raw,2382384101,43200000000,18,0.0,-1278059027800004096,0.0,333.564095198152,-93.85143985872769,0.0,2,16,0.0,16399,116656874436938,5,39.0,-300.411696892608,0.01,17,-9314.105350162426,0.1,1.56109798E9,,,,2,,5,6.0,1.56109798E9
Raw,2382384102,43200000000,18,0.0,-1278059027800004096,0.0,333.564095198152,-93.85143985872769,0.0,2,14,0.0,16399,116656913907916,27,26.0,-561.957122637467,0.05,17,9.316735144993298E7,0.1,1.56109798E9,,,,2,,5,6.0,1.56109798E9
Raw,2382384102,43200000000,18,0.0,-1278059027800004096,0.0,333.564095198152,-93.85143985872769,0.0,2,1,0.0,3072,5720196,27,29.0,335.11198932140405,0.05,17,9.36218807014568E7,0.1,1.57542003E9,,,,1,,6,6.0,1.57542003E9
Raw,2382384102,43200000000,18,0.0,-1278059027800004096,0.0,333.564095198152,-93.85143985872769,0.0,2,21,0.0,16399,116656927298626,5,44.0,38.673947494339195,0.01,17,9.361389516410251E7,0.1,1.56109798E9,,,,2,,5,6.0,1.56109798E9
Raw,2382384102,43200000000,18,0.0,-1278059027800004096,0.0,333.564095198152,-93.85143985872769,0.0,2,34,0.0,16399,116656922620404,5,40.0,-447.0103566918036,0.01,17,-13869.711612410469,0.1,1.56109798E9,,,,2,,5,6.0,1.56109798E9
Raw,2382384103,43200000000,18,0.0,-1278059027800004096,0.0,333.564095198152,-93.85143985872769,0.0,2,22,0.0,16399,116656919451122,5,37.0,476.46709475597913,0.01,17,9.363174776755323E7,0.1,1.56109798E9,,,,2,,5,6.0,1.56109798E9
Raw,2382384103,43200000000,18,0.0,-1278059027800004096,0.0,333.564095198152,-93.85143985872769,0.0,2,4,0.0,3072,5498006,5,31.0,-582.9228285528797,0.01,17,9.316710266803621E7,0.1,1.57542003E9,,,,2,,6,6.0,1.57542003E9
Raw,2382384103,43200000000,18,0.0,-1278059027800004096,0.0,333.564095198152,-93.85143985872769,0.0,2,9,0.0,3,17573903,26,25.0,534.3419108653692,0.05,17,9.619939123196335E7,0.1,1.17645005E9,,,,2,,1,0.0,1.17645005E9
Raw,2382384103,43200000000,18,0.0,-1278059027800004096,0.0,333.564095198152,-93.85143985872769,0.0,2,35,0.0,16399,116656915391062,5,34.0,457.620068576252,0.02,17,14171.875913328646,0.1,1.56109798E9,,,,2,,5,6.0,1.56109798E9
Raw,2382384104,43200000000,18,0.0,-1278059027800004096,0.0,333.564095198152,-93.85143985872769,0.0,2,25,0.0,3,11324,101,16.0,37.78050086017662,0.5,17,112.42293160762705,0.1,1.17645005E9,,,,0,,1,0.0,1.17645005E9
Raw,2382384104,43200000000,18,0.0,-1278059027800004096,0.0,333.564095198152,-93.85143985872769,0.0,2,7,0.0,3072,7962202,17,33.0,461.21179586633366,0.02,17,9.362682515537341E7,0.1,1.57542003E9,,,,2,,6,6.0,1.57542003E9
Raw,2382384104,43200000000,18,0.0,-1278059027800004096,0.0,333.564095198152,-93.85143985872769,0.0,2,194,0.0,3,14918823,6,25.0,42.31808629161736,0.030000001144409223,17,9.617945454741888E7,0.1,1.17645005E9,,,,2,,4,0.0,1.17645005E9
Raw,2382384105,43200000000,18,0.0,-1278059027800004096,0.0,333.564095198152,-93.85143985872769,0.0,2,26,0.0,3072,18708977,6,29.0,117.91711039100014,0.030000001144409223,17,3054.5327761372473,0.1,1.17645005E9,,,,2,,6,0.0,1.17645005E9
Raw,2382384105,43200000000,18,0.0,-1278059027800004096,0.0,333.564095198152,-93.85143985872769,0.0,2,12,0.0,3072,16731176,6,31.0,-396.2219339394249,0.02,17,9.317455030425985E7,0.1,1.57542003E9,,,,2,,6,6.0,1.57542003E9
Raw,2382384105,43200000000,18,0.0,-1278059027800004096,0.0,333.564095198152,-93.85143985872769,0.0,2,19,0.0,3072,20304920,5,36.0,-345.2863433878851,0.01,17,9.317649499846675E7,0.1,1.57542003E9,,,,2,,6,6.0,1.57542003E9
Raw,2382384105,43200000000,18,0.0,-1278059027800004096,0.0,333.564095198152,-93.85143985872769,0.0,2,26,0.0,3072,18708983,7,24.0,101.32367596330641,0.05,17,9.361259934314486E7,0.1,1.57542003E9,,,,2,,6,6.0,1.57542003E9
Raw,2382384106,43200000000,18,0.0,-1278059027800004096,0.0,333.564095198152,-93.85143985872769,0.0,2,12,0.0,3072,16731528,101,14.0,-395.3263288920261,0.5,17,-792.0262879387016,0.1,1.17645005E9,,,,2,,6,0.0,1.17645005E9
Raw,2382384106,43200000000,18,0.0,-1278059027800004096,0.0,333.564095198152,-93.85143985872769,0.0,2,31,0.0,3072,8038817,27,25.0,303.6774251454426,0.05,17,9.362058918444355E7,0.1,1.57542003E9,,,,2,,6,6.0,1.57542003E9
Raw,2382384106,43200000000,18,0.0,-1278059027800004096,0.0,333.564095198152,-93.85143985872769,0.0,2,1,0.0,3072,5720190,9,23.0,335.05283775748336,0.30000000715255754,17,9.619105456631339E7,0.1,1.17645005E9,,,,2,,6,0.0,1.17645005E9
Raw,2382384106,43200000000,18,0.0,-1278059027800004096,0.0,333.564095198152,-93.85143985872769,0.0,2,4,0.0,3072,5498004,27,25.0,-583.2842174533844,0.05,17,9.31670994143708E7,0.1,1.17645005E9,,,,2,,6,0.0,1.17645005E9
Raw,2382384106,43200000000,18,0.0,-1278059027800004096,0.0,333.564095198152,-93.85143985872769,0.0,2,7,0.0,3072,7962217,27,25.0,461.0835676580762,0.05,17,9.619599354041024E7,0.1,1.17645005E9,,,,2,,6,0.0,1.17645005E9
Raw,2382384107,43200000000,18,0.0,-1278059027800004096,0.0,333.564095198152,-93.85143985872769,0.0,2,19,0.0,3072,20304917,6,29.0,-345.4566282792923,0.030000001144409223,17,9.317649078168686E7,0.1,1.17645005E9,,,,2,,6,0.0,1.17645005E9
Raw,2382385112,44200000000,18,0.0,-1278059027800004096,0.0,333.564095198152,-93.99294131494717,0.0,2,2,0.0,16399,116671927300736,5,41.0,-164.1862697027961,0.01,17,9.318340373310041E7,0.1,1.57542003E9,,,,2,,1,6.0,1.57542003E9
Raw,2382385112,44200000000,18,0.0,-1278059027800004096,0.0,333.564095198152,-93.99294131494717,0.0,2,5,0.0,16399,116671931334706,5,42.0,19.709748749970746,0.01,17,9.360931553865586E7,0.1,1.57542003E9,,,,2,,1,6.0,1.57542003E9
Raw,2382385112,44200000000,18,0.0,-1278059027800004096,0.0,333.564095198152,-93.99294131494717,0.0,2,6,0.0,16399,116671924909659,5,38.0,151.04671792949298,0.01,17,9.361483271426351E7,0.1,1.57542003E9,,,,2,,1,6.0,1.57542003E9
Raw,2382385112,44200000000,18,0.0,-1278059027800004096,0.0,333.564095198152,-93.99294131494717,0.0,2,9,0.0,16399,116671917572110,23,28.0,533.9493880496582,0.030000001144409223,17,9.363075634864077E7,0.1,1.57542003E9,,,,2,,1,6.0,1.57542003E9
Raw,2382385113,44200000000,18,0.0,-1278059027800004096,0.0,333.564095198152,-93.99294131494717,0.0,2,12,0.0,16399,116671923572845,5,35.0,271.56031111836893,0.02,17,9.361980822318219E7,0.1,1.57542003E9,,,,2,,1,6.0,1.57542003E9
Raw,2382385113,44200000000,18,0.0,-1278059027800004096,0.0,333.564095198152,-93.99294131494717,0.0,2,13,0.0,16399,116671925380127,5,39.0,-637.1372839511135,0.01,17,9.31636592048176E7,0.1,1.57542003E9,,,,2,,1,6.0,1.57542003E9
Raw,2382385113,44200000000,18,0.0,-1278059027800004096,0.0,333.564095198152,-93.99294131494717,0.0,2,15,0.0,16399,116671918888841,17,34.0,-752.0918270416329,0.02,17,9.31588990444209E7,0.1,1.57542003E9,,,,2,,1,6.0,1.57542003E9
Raw,2382385113,44200000000,18,0.0,-1278059027800004096,0.0,333.564095198152,-93.99294131494717,0.0,2,17,0.0,16399,116671920511199,5,34.0,600.0545325183108,0.02,17,9.363352803226085E7,0.1,1.57542003E9,,,,2,,1,6.0,1.57542003E9
Raw,2382385114,44200000000,18,0.0,-1278059027800004096,0.0,333.564095198152,-93.99294131494717,0.0,2,19,0.0,16399,116671924814441,5,39.0,552.0621365639097,0.01,17,9.363151035416852E7,0.1,1.57542003E9,,,,2,,1,6.0,1.57542003E9
Raw,2382385114,44200000000,18,0.0,-1278059027800004096,0.0,333.564095198152,-93.99294131494717,0.0,2,25,0.0,16399,116671920011228,6,30.0,37.78383513525961,0.030000001144409223,17,9.361004268142337E7,0.1,1.57542003E9,,,,2,,1,6.0,1.57542003E9
Raw,2382385114,44200000000,18,0.0,-1278059027800004096,0.0,333.564095198152,-93.99294131494717,0.0,2,18,0.0,32995,41053930594885,12,40.0,196.14796713695364,0.01,17,1.4444345455848908E8,0.1,1.60031245E9,,,,2,,3,6.0,1.60031245E9
Raw,2382385114,44200000000,18,0.0,-1278059027800004096,0.0,333.564095198152,-93.99294131494717,0.0,2,29,0.0,16399,116671918300312,17,36.0,-691.9607876932934,0.01,17,9.316140220315197E7,0.1,1.57542003E9,,,,2,,1,6.0,1.57542003E9
Raw,2382385115,44200000000,18,0.0,-1278059027800004096,0.0,333.564095198152,-93.99294131494717,0.0,2,193,0.0,16399,116671870365560,5,40.0,129.96849777115423,0.01,17,9.36139739167745E7,0.1,1.57542003E9,,,,2,,4,6.0,1.57542003E9
Raw,2382385115,44200000000,18,0.0,-1278059027800004096,0.0,333.564095198152,-93.99294131494717,0.0,2,193,0.0,3,10365555,5,33.0,130.27382599212027,0.02,17,9.61831492893956E7,0.1,1.17645005E9,,,,2,,4,-1.0,1.17645005E9
Raw,2382385115,44200000000,18,0.0,-1278059027800004096,0.0,333.564095198152,-93.99294131494717,0.0,2,194,0.0,16399,116671874918702,5,30.0,42.37080008107925,0.01,17,9.361032326236373E7,0.1,1.57542003E9,,,,2,,4,6.0,1.57542003E9
Raw,2382385115,44200000000,18,0.0,-1278059027800004096,0.0,333.564095198152,-93.99294131494717,0.0,2,5,0.0,32995,41053932714528,12,41.0,-457.9323617775271,0.01,17,1.0235593645394191E8,0.1,1.60256256E9,,,,2,,3,6.0,1.60256256E9
Raw,2382385116,44200000000,18,0.0,-1278059027800004096,0.0,333.564095198152,-93.99294131494717,0.0,2,195,0.0,16399,116671876846989,5,42.0,-201.61032226026452,0.01,17,-7053.393709662142,0.1,1.57542003E9,,,,2,,4,6.0,1.57542003E9
Raw,2382385116,44200000000,18,0.0,-1278059027800004096,0.0,333.564095198152,-93.99294131494717,0.0,2,195,0.0,16399,116671876846990,5,35.0,-201.63143321708202,0.02,17,-6046.955807748726,0.1,1.17645005E9,,,,2,,4,-1.0,1.17645005E9
Raw,2382385116,44200000000,18,0.0,-1278059027800004096,0.0,333.564095198152,-93.99294131494717,0.0,2,3,0.0,32995,41053923431970,17,32.0,717.4364364852114,0.02,17,1.3994087895041427E8,0.1,1.60481254E9,,,,2,,3,6.0,1.60481254E9
Raw,2382385116,44200000000,18,0.0,-1278059027800004096,0.0,333.564095198152,-93.99294131494717,0.0,2,4,0.0,32995,41053935069357,12,40.0,282.0202072015835,0.01,17,1.3552710762177888E8,0.1,1.60537498E9,,,,2,,3,6.0,1.60537498E9
Raw,2382385117,44200000000,18,0.0,-1278059027800004096,0.0,333.564095198152,-93.99294131494717,0.0,2,6,0.0,16399,116671924909652,5,33.0,150.97881519207957,0.02,17,9.618400362540899E7,0.1,1.17645005E9,,,,2,,1,-1.0,1.17645005E9
Raw,2382385117,44200000000,18,0.0,-1278059027800004096,0.0,333.564095198152,-93.99294131494717,0.0,2,19,0.0,99,1932932077,28,26.0,-347.0859689025968,0.05,17,9.317573019430426E7,0.1,1.60368755E9,,,,2,,3,6.0,1.60368755E9
Raw,2382385117,44200000000,18,0.0,-1278059027800004096,0.0,333.564095198152,-93.99294131494717,0.0,2,6,0.0,16399,116657876326058,5,37.0,-268.39785984696704,0.01,17,9.317905964362928E7,0.1,1.56109798E9,,,,2,,5,6.0,1.56109798E9
Raw,2382385117,44200000000,18,0.0,-1278059027800004096,0.0,333.564095198152,-93.99294131494717,0.0,2,20,0.0,35,1349976,801,19.0,-664.541424587131,0.30000000715255754,17,9.795895369040516E7,0.1,1.60312499E9,,,,1,,3,6.0,1.60312499E9
Raw,2382385118,44200000000,18,0.0,-1278059027800004096,0.0,333.564095198152,-93.99294131494717,0.0,2,7,0.0,16399,116657869584268,5,32.0,252.97285396378805,0.02,17,9.362294653883849E7,0.1,1.56109798E9,,,,2,,5,6.0,1.56109798E9
Raw,2382385118,44200000000,18,0.0,-1278059027800004096,0.0,333.564095198152,-93.99294131494717,0.0,2,17,0.0,35,18706045,6,34.0,539.8277660980312,0.02,17,1.4433203932908863E8,0.1,1.60424998E9,,,,2,,3,6.0,1.60424998E9
Raw,2382385118,44200000000,18,0.0,-1278059027800004096,0.0,333.564095198152,-93.99294131494717,0.0,2,8,0.0,16399,116657875711264,5,37.0,-107.65780059938572,0.01,17,9.318577908516128E7,0.1,1.56109798E9,,,,2,,5,6.0,1.56109798E9
Raw,2382385119,44200000000,18,0.0,-1278059027800004096,0.0,333.564095198152,-93.99294131494717,0.0,2,1,0.0,17161,116657875047718,5,37.0,-27.100626098711334,0.01,17,9.31891478412454E7,0.1,1.56109798E9,,,,2,,5,6.0,1.56109798E9
Raw,2382385119,44200000000,18,0.0,-1278059027800004096,0.0,333.564095198152,-93.99294131494717,0.0,2,9,0.0,16399,116657871165745,5,33.0,-298.1558916930076,0.02,17,9.317783239355761E7,0.1,1.56109798E9,,,,2,,5,6.0,1.56109798E9
Raw,2382385119,44200000000,18,0.0,-1278059027800004096,0.0,333.564095198152,-93.99294131494717,0.0,2,3,0.0,17161,116657879744275,5,40.0,-24.887892387860642,0.01,17,9.318924459274843E7,0.1,1.56109798E9,,,,2,,5,6.0,1.56109798E9
Raw,2382385119,44200000000,18,0.0,-1278059027800004096,0.0,333.564095198152,-93.99294131494717,0.0,2,10,0.0,16399,116657872073001,5,34.0,279.31128569812506,0.02,17,9.362403239993589E7,0.1,1.56109798E9,,,,2,,5,6.0,1.56109798E9
Raw,2382385119,44200000000,18,0.0,-1278059027800004096,0.0,333.564095198152,-93.99294131494717,0.0,2,2,0.0,17161,116657876263866,5,35.0,-32.01567479523515,0.02,17,-1272.1419831227051,0.1,1.56109798E9,,,,2,,5,6.0,1.56109798E9
Raw,2382385120,44200000000,18,0.0,-1278059027800004096,0.0,333.564095198152,-93.99294131494717,0.0,2,11,0.0,16399,116657916221269,5,34.0,-572.9205628450911,0.02,17,9.316637719025795E7,0.1,1.56109798E9,,,,2,,5,6.0,1.56109798E9
Raw,2382385120,44200000000,18,0.0,-1278059027800004096,0.0,333.564095198152,-93.99294131494717,0.0,2,4,0.0,17161,116657871693363,6,32.0,-23.989513749292527,0.02,17,-623.1479642626953,0.1,1.56109798E9,,,,2,,5,6.0,1.56109798E9
Raw,2382385120,44200000000,18,0.0,-1278059027800004096,0.0,333.564095198152,-93.99294131494717,0.0,2,12,0.0,16399,116657927621447,5,42.0,-233.71354223196556,0.01,17,9.318045597143888E7,0.1,1.56109798E9,,,,2,,5,6.0,1.56109798E9
Raw,2382385120,44200000000,18,0.0,-1278059027800004096,0.0,333.564095198152,-93.99294131494717,0.0,2,5,0.0,17161,116657869024342,5,32.0,-30.662458076232696,0.01,17,-793.3248123944658,0.1,1.56109798E9,,,,2,,5,6.0,1.56109798E9
Raw,2382385121,44200000000,18,0.0,-1278059027800004096,0.0,333.564095198152,-93.99294131494717,0.0,2,13,0.0,16399,116657875434279,5,37.0,-83.93890587377737,0.01,17,9.318677565772371E7,0.1,1.56109798E9,,,,2,,5,6.0,1.56109798E9
Raw,2382385121,44200000000,18,0.0,-1278059027800004096,0.0,333.564095198152,-93.99294131494717,0.0,2,16,0.0,16399,116657874437945,5,39.0,-300.44826105139373,0.01,17,-9614.621905978944,0.1,1.56109798E9,,,,2,,5,6.0,1.56109798E9
Raw,2382385123,44200000000,18,0.0,-1278059027800004096,0.0,333.564095198152,-93.99294131494717,0.0,2,14,0.0,16399,116657913909791,23,27.0,-562.2243855987082,0.030000001144409223,17,9.31667892126521E7,0.1,1.56109798E9,,,,2,,5,6.0,1.56109798E9
Raw,2382385123,44200000000,18,0.0,-1278059027800004096,0.0,333.564095198152,-93.99294131494717,0.0,2,1,0.0,3072,5719082,27,28.0,335.3625598855846,0.05,17,9.36222159213387E7,0.1,1.57542003E9,,,,2,,6,6.0,1.57542003E9
Raw,2382385123,44200000000,18,0.0,-1278059027800004096,0.0,333.564095198152,-93.99294131494717,0.0,2,21,0.0,16399,116657927298498,5,45.0,38.68378154762376,0.01,17,9.361393382740708E7,0.1,1.56109798E9,,,,2,,5,6.0,1.56109798E9
Raw,2382385123,44200000000,18,0.0,-1278059027800004096,0.0,333.564095198152,-93.99294131494717,0.0,2,34,0.0,16399,116657922621895,5,40.0,-446.9956817994171,0.01,17,-14316.747657283322,0.1,1.56109798E9,,,,2,,5,6.0,1.56109798E9
Raw,2382385123,44200000000,18,0.0,-1278059027800004096,0.0,333.564095198152,-93.99294131494717,0.0,2,22,0.0,16399,116657919449540,5,38.0,476.16977581007177,0.01,17,9.363222397116292E7,0.1,1.56109798E9,,,,2,,5,6.0,1.56109798E9
Raw,2382385124,44200000000,18,0.0,-1278059027800004096,0.0,333.564095198152,-93.99294131494717,0.0,2,4,0.0,3072,5499950,5,30.0,-583.2005424467312,0.01,17,9.316651958767259E7,0.1,1.57542003E9,,,,2,,6,6.0,1.57542003E9
Raw,2382385124,44200000000,18,0.0,-1278059027800004096,0.0,333.564095198152,-93.99294131494717,0.0,2,9,0.0,3,17572120,26,26.0,533.882228066174,0.05,17,9.619992545416641E7,0.1,1.17645005E9,,,,2,,1,-1.0,1.17645005E9
Raw,2382385124,44200000000,18,0.0,-1278059027800004096,0.0,333.564095198152,-93.99294131494717,0.0,2,35,0.0,16399,116657915389535,5,35.0,457.70840802928234,0.02,17,14629.537844354629,0.1,1.56109798E9,,,,2,,5,6.0,1.56109798E9
Raw,2382385124,44200000000,18,0.0,-1278059027800004096,0.0,333.564095198152,-93.99294131494717,0.0,2,25,0.0,3,11197,101,16.0,37.940853245187704,0.5,17,150.20781476841483,0.1,1.17645005E9,,,,0,,1,-1.0,1.17645005E9
Raw,2382385124,44200000000,18,0.0,-1278059027800004096,0.0,333.564095198152,-93.99294131494717,0.0,2,7,0.0,3072,7960666,17,33.0,461.18884831237665,0.02,17,9.36272863249051E7,0.1,1.57542003E9,,,,2,,6,6.0,1.57542003E9
Raw,2382385124,44200000000,18,0.0,-1278059027800004096,0.0,333.564095198152,-93.99294131494717,0.0,2,194,0.0,3,14918680,6,26.0,42.27653130874645,0.030000001144409223,17,9.617949683577664E7,0.1,1.17645005E9,,,,2,,4,-1.0,1.17645005E9
Raw,2382385124,44200000000,18,0.0,-1278059027800004096,0.0,333.564095198152,-93.99294131494717,0.0,2,26,0.0,3072,18708583,6,29.0,117.95024705835542,0.030000001144409223,17,3172.603599759558,0.1,1.17645005E9,,,,2,,6,-1.0,1.17645005E9
Raw,2382385125,44200000000,18,0.0,-1278059027800004096,0.0,333.564095198152,-93.99294131494717,0.0,2,12,0.0,3072,16732498,9,31.0,-396.2350061762861,0.02,17,9.317415407943876E7,0.1,1.57542003E9,,,,1,,6,6.0,1.57542003E9
Raw,2382385125,44200000000,18,0.0,-1278059027800004096,0.0,333.564095198152,-93.99294131494717,0.0,2,19,0.0,3072,20306068,5,36.0,-345.106253144747,0.01,17,9.317614981334846E7,0.1,1.57542003E9,,,,2,,6,6.0,1.57542003E9
Raw,2382385125,44200000000,18,0.0,-1278059027800004096,0.0,333.564095198152,-93.99294131494717,0.0,2,26,0.0,3072,18708595,7,23.0,101.25172058754933,0.05,17,9.361270062466285E7,0.1,1.57542003E9,,,,2,,6,6.0,1.57542003E9
Raw,2382385125,44200000000,18,0.0,-1278059027800004096,0.0,333.564095198152,-93.99294131494717,0.0,2,12,0.0,3072,16732845,101,14.0,-395.2407614780598,0.5,17,-1187.395334919432,0.1,1.17645005E9,,,,2,,6,-1.0,1.17645005E9
Raw,2382385125,44200000000,18,0.0,-1278059027800004096,0.0,333.564095198152,-93.99294131494717,0.0,2,31,0.0,3072,8037814,27,25.0,303.33458816666797,0.05,17,9.362089259219033E7,0.1,1.57542003E9,,,,2,,6,6.0,1.57542003E9
Raw,2382385125,44200000000,18,0.0,-1278059027800004096,0.0,333.564095198152,-93.99294131494717,0.0,2,1,0.0,3072,5719071,9,24.0,335.0097040974303,0.30000000715255754,17,9.619138960336898E7,0.1,1.17645005E9,,,,2,,6,-1.0,1.17645005E9
Raw,2382385125,44200000000,18,0.0,-1278059027800004096,0.0,333.564095198152,-93.99294131494717,0.0,2,4,0.0,3072,5499949,27,26.0,-583.3070421702789,0.05,17,9.316651610147408E7,0.1,1.17645005E9,,,,2,,6,-1.0,1.17645005E9
Raw,2382385125,44200000000,18,0.0,-1278059027800004096,0.0,333.564095198152,-93.99294131494717,0.0,2,7,0.0,3072,7960679,27,25.0,461.0699778138605,0.05,17,9.619645459996873E7,0.1,1.17645005E9,,,,2,,6,-1.0,1.17645005E9
Raw,2382385126,44200000000,18,0.0,-1278059027800004096,0.0,333.564095198152,-93.99294131494717,0.0,2,19,0.0,3072,20306067,6,30.0,-345.1098831124997,0.030000001144409223,17,9.317614545316769E7,0.1,1.17645005E9,,,,2,,6,-1.0,1.17645005E9
Raw,2382386082,45200000000,18,0.0,-1278059027800004352,0.0,333.564095198152,-93.9832383017685,0.0,2,2,0.0,16399,116672927301289,5,41.0,-164.21899094606337,0.01,17,9.318323951216844E7,0.1,1.57542003E9,,,,2,,1,6.0,1.57542003E9
Raw,2382386083,45200000000,18,0.0,-1278059027800004352,0.0,333.564095198152,-93.9832383017685,0.0,2,5,0.0,16399,116672931334641,5,42.0,19.876447354636184,0.01,17,9.360933533458345E7,0.1,1.57542003E9,,,,2,,1,6.0,1.57542003E9
Raw,2382386083,45200000000,18,0.0,-1278059027800004352,0.0,333.564095198152,-93.9832383017685,0.0,2,6,0.0,16399,116672924909159,5,37.0,151.32638598047637,0.01,17,9.361498391909587E7,0.1,1.57542003E9,,,,2,,1,6.0,1.57542003E9
Raw,2382386083,45200000000,18,0.0,-1278059027800004352,0.0,333.564095198152,-93.9832383017685,0.0,2,9,0.0,16399,116672917570330,23,27.0,533.9335602479855,0.030000001144409223,17,9.363129027394025E7,0.1,1.57542003E9,,,,2,,1,6.0,1.57542003E9
Raw,2382386084,45200000000,18,0.0,-1278059027800004352,0.0,333.564095198152,-93.9832383017685,0.0,2,12,0.0,16399,116672923571944,5,35.0,271.39104278255684,0.02,17,9.362007967330277E7,0.1,1.57542003E9,,,,2,,1,6.0,1.57542003E9
Raw,2382386084,45200000000,18,0.0,-1278059027800004352,0.0,333.564095198152,-93.9832383017685,0.0,2,13,0.0,16399,116672925382252,5,39.0,-637.1978947623622,0.01,17,9.316302207415095E7,0.1,1.57542003E9,,,,2,,1,6.0,1.57542003E9
Raw,2382386084,45200000000,18,0.0,-1278059027800004352,0.0,333.564095198152,-93.9832383017685,0.0,2,15,0.0,16399,116672918891349,17,34.0,-752.1175766188176,0.02,17,9.315814690904012E7,0.1,1.57542003E9,,,,2,,1,6.0,1.57542003E9
Raw,2382386084,45200000000,18,0.0,-1278059027800004352,0.0,333.564095198152,-93.9832383017685,0.0,2,17,0.0,16399,116672920509199,5,34.0,600.0931278475778,0.02,17,9.363412808320393E7,0.1,1.57542003E9,,,,2,,1,6.0,1.57542003E9
Raw,2382386085,45200000000,18,0.0,-1278059027800004352,0.0,333.564095198152,-93.9832383017685,0.0,2,19,0.0,16399,116672924812598,5,39.0,552.1382267387095,0.01,17,9.36320624856765E7,0.1,1.57542003E9,,,,2,,1,6.0,1.57542003E9
Raw,2382386085,45200000000,18,0.0,-1278059027800004352,0.0,333.564095198152,-93.9832383017685,0.0,2,25,0.0,16399,116672920011105,6,29.0,37.81760169289163,0.030000001144409223,17,9.361008047935532E7,0.1,1.57542003E9,,,,2,,1,6.0,1.57542003E9
Raw,2382386085,45200000000,18,0.0,-1278059027800004352,0.0,333.564095198152,-93.9832383017685,0.0,2,18,0.0,32995,41054930594221,12,40.0,196.2869438374758,0.01,17,1.4566299244563892E8,0.1,1.60031245E9,,,,2,,3,6.0,1.60031245E9
Raw,2382386085,45200000000,18,0.0,-1278059027800004352,0.0,333.564095198152,-93.9832383017685,0.0,2,29,0.0,16399,116672918302616,17,36.0,-692.0844454789907,0.01,17,9.316071021361595E7,0.1,1.57542003E9,,,,2,,1,6.0,1.57542003E9
Raw,2382386086,45200000000,18,0.0,-1278059027800004352,0.0,333.564095198152,-93.9832383017685,0.0,2,193,0.0,16399,116672870365128,5,39.0,129.9875979875188,0.01,17,9.361410387911852E7,0.1,1.57542003E9,,,,2,,4,6.0,1.57542003E9
Raw,2382386086,45200000000,18,0.0,-1278059027800004352,0.0,333.564095198152,-93.9832383017685,0.0,2,193,0.0,3,10365120,5,33.0,130.1446388721705,0.02,17,9.618327943984461E7,0.1,1.17645005E9,,,,2,,4,0.0,1.17645005E9
Raw,2382386086,45200000000,18,0.0,-1278059027800004352,0.0,333.564095198152,-93.9832383017685,0.0,2,194,0.0,16399,116672874918558,5,30.0,42.23545219640289,0.01,17,9.361036552460203E7,0.1,1.57542003E9,,,,2,,4,6.0,1.57542003E9
Raw,2382386086,45200000000,18,0.0,-1278059027800004352,0.0,333.564095198152,-93.9832383017685,0.0,2,5,0.0,32995,41054932716050,12,41.0,-457.82439422636514,0.01,17,1.0256593308668534E8,0.1,1.60256256E9,,,,2,,3,6.0,1.60256256E9
Raw,2382386087,45200000000,18,0.0,-1278059027800004352,0.0,333.564095198152,-93.9832383017685,0.0,2,195,0.0,16399,116672876847666,5,42.0,-201.6218120073236,0.01,17,-7255.024703510892,0.1,1.57542003E9,,,,2,,4,6.0,1.57542003E9
Raw,2382386087,45200000000,18,0.0,-1278059027800004352,0.0,333.564095198152,-93.9832383017685,0.0,2,195,0.0,16399,116672876847661,5,35.0,-201.6732992693484,0.02,17,-6248.5421141941115,0.1,1.17645005E9,,,,2,,4,0.0,1.17645005E9
Raw,2382386087,45200000000,18,0.0,-1278059027800004352,0.0,333.564095198152,-93.9832383017685,0.0,2,3,0.0,32995,41054923429583,25,32.0,717.3953868668108,0.02,17,1.4105243919567758E8,0.1,1.60481254E9,,,,1,,3,6.0,1.60481254E9
Raw,2382386087,45200000000,18,0.0,-1278059027800004352,0.0,333.564095198152,-93.9832383017685,0.0,2,4,0.0,32995,41054935068414,12,40.0,282.13222846412907,0.01,17,1.365328003839142E8,0.1,1.60537498E9,,,,2,,3,6.0,1.60537498E9
Raw,2382386088,45200000000,18,0.0,-1278059027800004352,0.0,333.564095198152,-93.9832383017685,0.0,2,6,0.0,16399,116672924909145,5,33.0,151.33479134318358,0.02,17,9.61841547869826E7,0.1,1.17645005E9,,,,2,,1,0.0,1.17645005E9
Raw,2382386088,45200000000,18,0.0,-1278059027800004352,0.0,333.564095198152,-93.9832383017685,0.0,2,19,0.0,99,932933236,28,26.0,-347.08855324007556,0.05,17,9.317538312997425E7,0.1,1.60368755E9,,,,2,,3,6.0,1.60368755E9
Raw,2382386088,45200000000,18,0.0,-1278059027800004352,0.0,333.564095198152,-93.9832383017685,0.0,2,6,0.0,16399,116658876326961,5,37.0,-268.1420132956176,0.01,17,9.317879128524247E7,0.1,1.56109798E9,,,,2,,5,6.0,1.56109798E9
Raw,2382386088,45200000000,18,0.0,-1278059027800004352,0.0,333.564095198152,-93.9832383017685,0.0,2,20,0.0,35,1352168,534,18.0,-663.7914811799117,0.30000000715255754,17,9.806347961153655E7,0.1,1.60312499E9,,,,1,,3,6.0,1.60312499E9
Raw,2382386089,45200000000,18,0.0,-1278059027800004352,0.0,333.564095198152,-93.9832383017685,0.0,2,7,0.0,16399,116658869583426,5,33.0,252.99174261321363,0.02,17,9.362319947850518E7,0.1,1.56109798E9,,,,2,,5,6.0,1.56109798E9
Raw,2382386089,45200000000,18,0.0,-1278059027800004352,0.0,333.564095198152,-93.9832383017685,0.0,2,17,0.0,35,18704256,6,35.0,539.7181270973435,0.02,17,1.455489279971083E8,0.1,1.60424998E9,,,,2,,3,6.0,1.60424998E9
Raw,2382386089,45200000000,18,0.0,-1278059027800004352,0.0,333.564095198152,-93.9832383017685,0.0,2,8,0.0,16399,116658875711622,5,36.0,-107.96938126678774,0.01,17,9.318567128444934E7,0.1,1.56109798E9,,,,2,,5,6.0,1.56109798E9
Raw,2382386089,45200000000,18,0.0,-1278059027800004352,0.0,333.564095198152,-93.9832383017685,0.0,2,1,0.0,17161,116658875047813,5,37.0,-27.183468327676756,0.01,17,9.318912064667259E7,0.1,1.56109798E9,,,,2,,5,6.0,1.56109798E9
Raw,2382386089,45200000000,18,0.0,-1278059027800004352,0.0,333.564095198152,-93.9832383017685,0.0,2,9,0.0,16399,116658871166745,5,33.0,-297.99642824077495,0.02,17,9.317753427882499E7,0.1,1.56109798E9,,,,2,,5,6.0,1.56109798E9
Raw,2382386090,45200000000,18,0.0,-1278059027800004352,0.0,333.564095198152,-93.9832383017685,0.0,2,3,0.0,17161,116658879744362,5,39.0,-24.84003782165378,0.01,17,9.318921968756446E7,0.1,1.56109798E9,,,,2,,5,6.0,1.56109798E9
Raw,2382386090,45200000000,18,0.0,-1278059027800004352,0.0,333.564095198152,-93.9832383017685,0.0,2,10,0.0,16399,116658872072070,5,34.0,279.29700639489033,0.02,17,9.362431170234233E7,0.1,1.56109798E9,,,,2,,5,6.0,1.56109798E9
Raw,2382386090,45200000000,18,0.0,-1278059027800004352,0.0,333.564095198152,-93.9832383017685,0.0,2,2,0.0,17161,116658876263973,5,34.0,-32.02292140243799,0.02,17,-1304.1717612296316,0.1,1.56109798E9,,,,2,,5,6.0,1.56109798E9
Raw,2382386090,45200000000,18,0.0,-1278059027800004352,0.0,333.564095198152,-93.9832383017685,0.0,2,11,0.0,16399,116658916223183,5,34.0,-572.8951103460358,0.02,17,9.316580426682521E7,0.1,1.56109798E9,,,,2,,5,6.0,1.56109798E9
Raw,2382386091,45200000000,18,0.0,-1278059027800004352,0.0,333.564095198152,-93.9832383017685,0.0,2,4,0.0,17161,116658871693444,6,32.0,-24.010101966925827,0.02,17,-647.1702091772935,0.1,1.56109798E9,,,,2,,5,6.0,1.56109798E9
Raw,2382386091,45200000000,18,0.0,-1278059027800004352,0.0,333.564095198152,-93.9832383017685,0.0,2,12,0.0,16399,116658927622227,5,42.0,-233.6882157353808,0.01,17,9.318022222506717E7,0.1,1.56109798E9,,,,2,,5,6.0,1.56109798E9
Raw,2382386091,45200000000,18,0.0,-1278059027800004352,0.0,333.564095198152,-93.9832383017685,0.0,2,5,0.0,17161,116658869024446,5,32.0,-30.683887287099807,0.01,17,-824.021397650204,0.1,1.56109798E9,,,,2,,5,6.0,1.56109798E9
Raw,2382386091,45200000000,18,0.0,-1278059027800004352,0.0,333.564095198152,-93.9832383017685,0.0,2,13,0.0,16399,116658875434561,5,38.0,-83.84403773459746,0.01,17,9.318669178133672E7,0.1,1.56109798E9,,,,2,,5,6.0,1.56109798E9
Raw,2382386092,45200000000,18,0.0,-1278059027800004352,0.0,333.564095198152,-93.9832383017685,0.0,2,16,0.0,16399,116658874438948,5,40.0,-300.45027709092284,0.01,17,-9915.09424481802,0.1,1.56109798E9,,,,2,,5,6.0,1.56109798E9
Raw,2382386092,45200000000,18,0.0,-1278059027800004352,0.0,333.564095198152,-93.9832383017685,0.0,2,14,0.0,16399,116658913911664,23,28.0,-562.297390844099,0.030000001144409223,17,9.316622694368209E7,0.1,1.56109798E9,,,,2,,5,6.0,1.56109798E9
Raw,2382386092,45200000000,18,0.0,-1278059027800004352,0.0,333.564095198152,-93.9832383017685,0.0,2,1,0.0,3072,5717961,27,28.0,334.8761838226254,0.05,17,9.36225510260569E7,0.1,1.57542003E9,,,,2,,6,6.0,1.57542003E9
Raw,2382386093,45200000000,18,0.0,-1278059027800004352,0.0,333.564095198152,-93.9832383017685,0.0,2,21,0.0,16399,116658927298370,5,45.0,38.86937439590482,0.01,17,9.361397261380021E7,0.1,1.56109798E9,,,,2,,5,6.0,1.56109798E9
Raw,2382386093,45200000000,18,0.0,-1278059027800004352,0.0,333.564095198152,-93.9832383017685,0.0,2,34,0.0,16399,116658922623391,5,40.0,-446.9294338027969,0.01,17,-14763.745227883266,0.1,1.56109798E9,,,,2,,5,6.0,1.56109798E9
Raw,2382386093,45200000000,18,0.0,-1278059027800004352,0.0,333.564095198152,-93.9832383017685,0.0,2,22,0.0,16399,116658919447952,5,37.0,476.17566276270844,0.01,17,9.363270016009478E7,0.1,1.56109798E9,,,,2,,5,6.0,1.56109798E9
Raw,2382386093,45200000000,18,0.0,-1278059027800004352,0.0,333.564095198152,-93.9832383017685,0.0,2,4,0.0,3072,5501900,5,30.0,-583.5184370633028,0.01,17,9.316593621196108E7,0.1,1.57542003E9,,,,2,,6,6.0,1.57542003E9
Raw,2382386094,45200000000,18,0.0,-1278059027800004352,0.0,333.564095198152,-93.9832383017685,0.0,2,9,0.0,3,17570338,26,26.0,534.1284239392398,0.05,17,9.620045946939892E7,0.1,1.17645005E9,,,,2,,1,0.0,1.17645005E9
Raw,2382386094,45200000000,18,0.0,-1278059027800004352,0.0,333.564095198152,-93.9832383017685,0.0,2,35,0.0,16399,116658915388007,5,34.0,457.87355624414073,0.02,17,15087.312583464933,0.1,1.56109798E9,,,,2,,5,6.0,1.56109798E9
Raw,2382386094,45200000000,18,0.0,-1278059027800004352,0.0,333.564095198152,-93.9832383017685,0.0,2,25,0.0,3,11070,101,16.0,37.88396254111881,0.5,17,188.09559257681119,0.1,1.17645005E9,,,,0,,1,0.0,1.17645005E9
Raw,2382386094,45200000000,18,0.0,-1278059027800004352,0.0,333.564095198152,-93.9832383017685,0.0,2,7,0.0,3072,7959127,17,33.0,461.08012110018893,0.02,17,9.36277474596905E7,0.1,1.57542003E9,,,,2,,6,6.0,1.57542003E9
Raw,2382386095,45200000000,18,0.0,-1278059027800004352,0.0,333.564095198152,-93.9832383017685,0.0,2,194,0.0,3,14918541,6,27.0,42.123792347190154,0.030000001144409223,17,9.617953902066544E7,0.1,1.17645005E9,,,,2,,4,0.0,1.17645005E9
Raw,2382386095,45200000000,18,0.0,-1278059027800004352,0.0,333.564095198152,-93.9832383017685,0.0,2,26,0.0,3072,18708189,6,30.0,118.04222250186889,0.030000001144409223,17,3290.5623117237697,0.1,1.17645005E9,,,,2,,6,0.0,1.17645005E9
Raw,2382386095,45200000000,18,0.0,-1278059027800004352,0.0,333.564095198152,-93.9832383017685,0.0,2,12,0.0,3072,16733819,6,31.0,-396.2480406656842,0.02,17,9.317375781719933E7,0.1,1.57542003E9,,,,2,,6,6.0,1.57542003E9
Raw,2382386095,45200000000,18,0.0,-1278059027800004352,0.0,333.564095198152,-93.9832383017685,0.0,2,19,0.0,3072,20307216,5,36.0,-345.3757468025803,0.01,17,9.317580451204956E7,0.1,1.57542003E9,,,,2,,6,6.0,1.57542003E9
Raw,2382386095,45200000000,18,0.0,-1278059027800004352,0.0,333.564095198152,-93.9832383017685,0.0,2,26,0.0,3072,18708204,7,23.0,101.36502976103581,0.05,17,9.361280194489056E7,0.1,1.57542003E9,,,,2,,6,6.0,1.57542003E9
Raw,2382386096,45200000000,18,0.0,-1278059027800004352,0.0,333.564095198152,-93.9832383017685,0.0,2,12,0.0,3072,16734163,101,14.0,-395.57700805275454,0.5,17,-1582.6974417370157,0.1,1.17645005E9,,,,0,,6,0.0,1.17645005E9
Raw,2382386096,45200000000,18,0.0,-1278059027800004352,0.0,333.564095198152,-93.9832383017685,0.0,2,31,0.0,3072,8036809,27,26.0,303.4362827361018,0.05,17,9.362119581422748E7,0.1,1.57542003E9,,,,2,,6,6.0,1.57542003E9
Raw,2382386096,45200000000,18,0.0,-1278059027800004352,0.0,333.564095198152,-93.9832383017685,0.0,2,1,0.0,3072,5717952,9,24.0,335.02795998257847,0.30000000715255754,17,9.61917246093505E7,0.1,1.17645005E9,,,,2,,6,0.0,1.17645005E9
Raw,2382386096,45200000000,18,0.0,-1278059027800004352,0.0,333.564095198152,-93.9832383017685,0.0,2,4,0.0,3072,5501892,27,26.0,-583.1821244777824,0.05,17,9.316593289190204E7,0.1,1.17645005E9,,,,2,,6,0.0,1.17645005E9
Raw,2382386097,45200000000,18,0.0,-1278059027800004352,0.0,333.564095198152,-93.9832383017685,0.0,2,7,0.0,3072,7959140,27,26.0,461.084135359723,0.05,17,9.619691554611765E7,0.1,1.17645005E9,,,,2,,6,0.0,1.17645005E9
Raw,2382386097,45200000000,18,0.0,-1278059027800004352,0.0,333.564095198152,-93.9832383017685,0.0,2,19,0.0,3072,20307216,6,30.0,-344.91121864306575,0.030000001144409223,17,9.317580043971595E7,0.1,1.17645005E9,,,,2,,6,0.0,1.17645005E9
Raw,2382387099,46200000000,18,0.0,-1278059027800004352,0.0,333.564095198152,-94.13189613475961,0.0,2,2,0.0,16399,116673927301837,5,41.0,-164.17774458342146,0.01,17,9.318307532319675E7,0.1,1.57542003E9,,,,2,,1,6.0,1.57542003E9
Raw,2382387099,46200000000,18,0.0,-1278059027800004352,0.0,333.564095198152,-94.13189613475961,0.0,2,5,0.0,16399,116673931334578,5,42.0,19.826394218471354,0.01,17,9.36093551847428E7,0.1,1.57542003E9,,,,2,,1,6.0,1.57542003E9
Raw,2382387100,46200000000,18,0.0,-1278059027800004352,0.0,333.564095198152,-94.13189613475961,0.0,2,6,0.0,16399,116673924908651,5,38.0,151.34751584889915,0.01,17,9.361513520526785E7,0.1,1.57542003E9,,,,2,,1,6.0,1.57542003E9
Raw,2382387100,46200000000,18,0.0,-1278059027800004352,0.0,333.564095198152,-94.13189613475961,0.0,2,9,0.0,16399,116673917568547,23,27.0,533.9394430449381,0.030000001144409223,17,9.363182419874464E7,0.1,1.57542003E9,,,,2,,1,6.0,1.57542003E9
Raw,2382387100,46200000000,18,0.0,-1278059027800004352,0.0,333.564095198152,-94.13189613475961,0.0,2,12,0.0,16399,116673923571044,5,35.0,271.5034198840681,0.02,17,9.362035109259085E7,0.1,1.57542003E9,,,,2,,1,6.0,1.57542003E9
Raw,2382387101,46200000000,18,0.0,-1278059027800004352,0.0,333.564095198152,-94.13189613475961,0.0,2,13,0.0,16399,116673925384371,5,39.0,-637.0090500114194,0.01,17,9.316238490368365E7,0.1,1.57542003E9,,,,2,,1,6.0,1.57542003E9
Raw,2382387101,46200000000,18,0.0,-1278059027800004352,0.0,333.564095198152,-94.13189613475961,0.0,2,15,0.0,16399,116673918893858,17,35.0,-752.1541422960263,0.02,17,9.315739477679504E7,0.1,1.57542003E9,,,,2,,1,6.0,1.57542003E9
Raw,2382387101,46200000000,18,0.0,-1278059027800004352,0.0,333.564095198152,-94.13189613475961,0.0,2,17,0.0,16399,116673920507198,5,35.0,600.1376524322135,0.02,17,9.363472818664709E7,0.1,1.57542003E9,,,,2,,1,6.0,1.57542003E9
Raw,2382387102,46200000000,18,0.0,-1278059027800004352,0.0,333.564095198152,-94.13189613475961,0.0,2,19,0.0,16399,116673924810755,5,40.0,551.9644170927129,0.01,17,9.363261456555898E7,0.1,1.57542003E9,,,,2,,1,6.0,1.57542003E9
Raw,2382387102,46200000000,18,0.0,-1278059027800004352,0.0,333.564095198152,-94.13189613475961,0.0,2,25,0.0,16399,116673920010983,6,28.0,37.84440239174308,0.030000001144409223,17,9.361011830457754E7,0.1,1.57542003E9,,,,2,,1,6.0,1.57542003E9
Raw,2382387102,46200000000,18,0.0,-1278059027800004352,0.0,333.564095198152,-94.13189613475961,0.0,2,18,0.0,32995,41055930593545,12,40.0,196.38114236457443,0.01,17,1.468825304831741E8,0.1,1.60031245E9,,,,2,,3,6.0,1.60031245E9
Raw,2382387102,46200000000,18,0.0,-1278059027800004352,0.0,333.564095198152,-94.13189613475961,0.0,2,29,0.0,16399,116673918304923,17,36.0,-691.8710968171479,0.01,17,9.316001825484666E7,0.1,1.57542003E9,,,,2,,1,6.0,1.57542003E9
Raw,2382387103,46200000000,18,0.0,-1278059027800004352,0.0,333.564095198152,-94.13189613475961,0.0,2,193,0.0,16399,116673870364687,5,40.0,129.86697742078115,0.01,17,9.361423379152805E7,0.1,1.57542003E9,,,,2,,4,6.0,1.57542003E9
Raw,2382387103,46200000000,18,0.0,-1278059027800004352,0.0,333.564095198152,-94.13189613475961,0.0,2,193,0.0,3,10364687,5,33.0,129.96052078534348,0.02,17,9.618340945424548E7,0.1,1.17645005E9,,,,2,,4,0.0,1.17645005E9
Raw,2382387103,46200000000,18,0.0,-1278059027800004352,0.0,333.564095198152,-94.13189613475961,0.0,2,194,0.0,16399,116673874918416,5,30.0,41.9677442839427,0.01,17,9.361040758713719E7,0.1,1.57542003E9,,,,2,,4,6.0,1.57542003E9
Raw,2382387103,46200000000,18,0.0,-1278059027800004352,0.0,333.564095198152,-94.13189613475961,0.0,2,5,0.0,32995,41055932717581,12,42.0,-457.7150708009751,0.01,17,1.0277592983903024E8,0.1,1.60256256E9,,,,2,,3,6.0,1.60256256E9
Raw,2382387104,46200000000,18,0.0,-1278059027800004352,0.0,333.564095198152,-94.13189613475961,0.0,2,195,0.0,16399,116673876848333,5,42.0,-201.62065345056934,0.01,17,-7456.70045248396,0.1,1.57542003E9,,,,2,,4,6.0,1.57542003E9
Raw,2382387104,46200000000,18,0.0,-1278059027800004352,0.0,333.564095198152,-94.13189613475961,0.0,2,195,0.0,16399,116673876848331,5,35.0,-201.58516553286933,0.02,17,-6450.125730238571,0.1,1.17645005E9,,,,2,,4,0.0,1.17645005E9
Raw,2382387105,46200000000,18,0.0,-1278059027800004352,0.0,333.564095198152,-94.13189613475961,0.0,2,3,0.0,32995,41055923427199,17,32.0,717.296290277428,0.02,17,1.421639993277777E8,0.1,1.60481254E9,,,,2,,3,6.0,1.60481254E9
Raw,2382387105,46200000000,18,0.0,-1278059027800004352,0.0,333.564095198152,-94.13189613475961,0.0,2,4,0.0,32995,41055935067477,12,40.0,282.24908527935537,0.01,17,1.3753849327609363E8,0.1,1.60537498E9,,,,2,,3,6.0,1.60537498E9
Raw,2382387105,46200000000,18,0.0,-1278059027800004352,0.0,333.564095198152,-94.13189613475961,0.0,2,6,0.0,16399,116673924908638,5,33.0,151.45625616539016,0.02,17,9.618430624093112E7,0.1,1.17645005E9,,,,2,,1,0.0,1.17645005E9
Raw,2382387105,46200000000,18,0.0,-1278059027800004352,0.0,333.564095198152,-94.13189613475961,0.0,2,19,0.0,99,1932934404,31,27.0,-347.15054310993094,0.030000001144409223,17,9.317503604718448E7,0.1,1.60368755E9,,,,1,,3,6.0,1.60368755E9
Raw,2382387106,46200000000,18,0.0,-1278059027800004352,0.0,333.564095198152,-94.13189613475961,0.0,2,6,0.0,16399,116659876327856,5,37.0,-268.2183033961133,0.01,17,9.317852304468986E7,0.1,1.56109798E9,,,,2,,5,6.0,1.56109798E9
Raw,2382387106,46200000000,18,0.0,-1278059027800004352,0.0,333.564095198152,-94.13189613475961,0.0,2,20,0.0,35,1354358,534,18.0,-664.24880118839,0.30000000715255754,17,9.816800610175605E7,0.1,1.60312499E9,,,,1,,3,6.0,1.60312499E9
Raw,2382387106,46200000000,18,0.0,-1278059027800004352,0.0,333.564095198152,-94.13189613475961,0.0,2,7,0.0,16399,116659869582585,5,33.0,252.91885164913333,0.02,17,9.36234524294701E7,0.1,1.56109798E9,,,,2,,5,6.0,1.56109798E9
Raw,2382387107,46200000000,18,0.0,-1278059027800004352,0.0,333.564095198152,-94.13189613475961,0.0,2,17,0.0,35,18702462,6,36.0,539.6498828787879,0.02,17,1.4676581674866685E8,0.1,1.60424998E9,,,,2,,3,6.0,1.60424998E9
Raw,2382387107,46200000000,18,0.0,-1278059027800004352,0.0,333.564095198152,-94.13189613475961,0.0,2,8,0.0,16399,116659875711985,5,37.0,-107.85603178849406,0.01,17,9.318556345782119E7,0.1,1.56109798E9,,,,2,,5,6.0,1.56109798E9
