     2.11           OBSERVATION DATA    M (MIXED)           RINEX VERSION / TYPE
ANDROID_RINEX       UNKN                2020-07-01 11:19:16 PGM / RUN BY / DATE
Generated by Rokubun's android_rinex program                COMMENT
Four doubts or inquiries, reach us at info@rokubun.cat      COMMENT
UNKN                                                        MARKER NAME
UNKN                UNKN                                    OBSERVER / AGENCY
UNKN                UNKN                AndroidOS >7.0      REC # / TYPE / VERS
UNKN                internal                                ANT # / TYPE
        0.0000        0.0000        0.0000                  APPROX POSITION XYZ
        0.0000        0.0000        0.0000                  ANTENNA: DELTA H/E/N
     4    C1    S1    L1    D1                              # / TYPES OF OBSERV
  2017    07    17    11    46    44.000338                 TIME OF FIRST OBS
                                                            END OF HEADER
 17 07 17 11 46 44.000338   0  9G05G16G18G20G21G25G26G29G31
  24903458.402          33.922       34969.225       -1487.736
  22055851.561          30.472      -59093.664        2494.583
  24084851.713          31.965      -61379.113        2593.500
  23049420.127          34.835      -15148.961         632.073
  20971806.831          36.014       -2150.930          83.372
  24621643.301          22.369       80721.502       -3415.577
  20729164.708          35.988      -28692.721        1205.919
  22451353.361          37.710       63768.768       -2699.524
  22078092.265          30.336       65157.883       -2761.987
 17 07 17 11 46 45.000338   0  9G05G16G18G20G21G25G26G29G31
  24903731.817          34.147       36457.001       -1487.881
  22055356.904          29.490      -61588.433        2494.292
  24084371.148          31.563      -63972.305        2593.548
  23049288.819          34.859      -15780.761         631.583
  20971788.544          35.139       -2233.738          82.402
  24622255.778          23.527       84138.503       -3416.904
  20728947.357          34.383      -29899.208        1206.280
  22451870.502          37.192       66468.122       -2699.394
  22078595.617          33.030       67919.687       -2762.071
 17 07 17 11 46 46.000338   0  9G05G16G18G20G21G25G26G29G31
  24904017.817          36.028       37945.147       -1488.067
  22054908.115          26.564      -64082.771        2493.851
  24083872.294          31.681      -66565.745        2593.750
  23049174.900          33.881      -16412.043         630.921
  20971775.652          34.148       -2316.139          81.832
  24622900.629          22.846       87555.577       -3415.833
  20728725.211          35.922      -31105.347        1205.568
  22452377.453          37.248       69167.614       -2699.548
  22079127.447          34.509       70681.672       -2762.096
 17 07 17 11 46 47.000337   0  9G05G16G18G20G21G25G26G29G31
  24904144.078          37.530       39434.281       -1489.534
  22054280.099          28.452      -66576.981        2494.296
  24083220.890          29.754      -69158.672        2592.738
  23048910.529          35.351      -17042.485         630.070
  20971609.317          33.750       -2397.681          80.968
  24623430.112          23.684       90973.194       -3417.605
  20728342.428          37.313      -32310.815        1204.976
  22452756.441          38.184       71867.469       -2699.973
  22079504.934          32.406       73444.485       -2763.161
 17 07 17 11 46 48.000337   0  9G05G16G18G20G21G25G26G29G31
  24904428.582          35.329       40924.868       -1491.437
  22053792.636          26.498      -69069.964        2492.626
  24082722.338          29.132      -71750.763        2591.859
  23048798.407          33.813      -17671.439         628.073
  20971593.725          34.060       -2477.714          79.158
  24624088.457          21.140       94391.840       -3417.466
  20728117.581          36.543      -33515.027        1203.468
  22453265.185          36.906       74568.312       -2701.265
  22080021.177          31.090       76208.424       -2764.515
 17 07 17 11 46 49.000337   0  9G05G16G18G20G21G25G26G29G31
  24904721.781          34.436       42416.527       -1491.841
  22053315.364          27.468      -71562.081        2492.233
  24082236.973          30.292      -74342.117        2591.118
  23048674.593          33.838      -18299.207         627.479
  20971580.236          34.733       -2556.734          78.683
  24624709.628          20.771       97811.649       -3415.556
  20727891.239          37.508      -34718.099        1203.035
  22453786.527          37.773       77269.870       -2701.193
  22080554.809          28.885       78973.602       -2765.954
 17 07 17 11 46 50.000337   0  9G05G16G18G20G21G25G26G29G31
  24904921.315          35.873       43908.758       -1492.374
  22052756.726          26.309      -74053.886        2491.576
  24081668.139          29.714      -76933.623        2592.074
  23048481.402          35.001      -18926.477         626.580
  20971497.666          34.001       -2635.311          77.757
  24625301.892          22.041      101226.493       -3415.646
  20727582.628          35.460      -35920.801        1202.456
  22454224.995          38.055       79971.369       -2701.255
  22081007.372          31.747       81738.818       -2766.010
 17 07 17 11 46 51.000337   0  9G05G16G18G20G21G25G26G29G31
  24905204.619          35.221       45402.298       -1494.337
  22052298.344          28.609      -76546.112        2491.670
  24081179.778          35.537      -79523.984        2589.488
  23048349.194          35.506      -19553.196         626.552
  20971485.076          37.755       -2713.472          78.763
  24625987.817          23.748      104644.122       -3421.998
  20727343.991          34.589      -37123.389        1203.349
  22454740.640          38.439       82672.749       -2701.494
  22081522.712          36.285       84505.132       -2766.288
 17 07 17 11 46 52.000337   0  9G05G16G18G20G21G25G26G29G31
  24905464.239          31.584       46894.270       -1489.473
  22051820.775          34.175      -79040.792        2496.605
  24080688.419          35.227      -82112.505        2592.342
  23048237.971          32.759      -20179.586         622.967
  20971472.485          37.557       -2789.797          75.740
  24626619.179          28.544      108068.453       -3423.111
  20727125.144          40.747      -38327.393        1203.379
  22455267.375          34.904       85367.595       -2701.262
  22082050.947          41.004       87270.902       -2765.275
 17 07 17 11 46 53.000337   0  9G05G16G18G20G21G25G26G29G31
  24905754.437          30.013       48389.210       -1494.273
  22051340.510          40.216      -81532.281        2490.404
  24080254.619          31.071      -84702.589        2587.501
  23048166.321          28.130      -20805.754         625.956
  20971456.296          33.602       -2865.807          76.670
  24627276.925          26.855      111489.511       -3421.076
  20726891.307          41.910      -39528.723        1200.925
  22455771.926          31.818       88068.748       -2702.612
  22082575.283          45.762       90038.468       -2766.750
 17 07 17 11 46 54.000337   0  9G05G16G18G20G21G25G26G29G31
  24906017.830          29.055       49883.780       -1497.791
  22050806.154          38.788      -84021.889        2491.308
  24079612.940          31.394      -87295.432        2589.595
  23047944.947          29.627      -21431.005         623.624
  20971368.630          37.715       -2942.378          75.891
  24627861.093          26.554      114912.785       -3418.802
  20726593.187          38.787      -40729.723        1200.978
  22456235.578          32.711       90771.415       -2702.627
  22083032.042          44.605       92804.941       -2767.970
 17 07 17 11 46 55.000337   0  9G05G16G18G20G21G25G26G29G31
  24906272.656          26.193       51383.268       -1495.063
  22050343.871          34.318      -86512.106        2485.638
  24079128.173          30.692      -89887.495        2589.878
  23047798.051          32.676      -22055.773         623.200
  20971356.341          38.432       -3017.941          75.148
  24628497.555          24.819      118333.851       -3418.719
  20726366.544          34.089      -41930.288        1198.773
  22456735.933          39.122       93473.640       -2702.623
  22083556.980          40.764       95572.519       -2768.651
 17 07 17 11 46 56.000337   0  9G05G16G18G20G21G25G26G29G31
  24906525.378          23.379       52880.104       -1496.204
  22049860.007          29.825      -89002.176        2490.312
  24078628.421          27.827      -92478.162        2592.753
  23047671.838          31.952      -22679.226         624.684
  20971348.545          33.846       -3092.881          77.131
  24629163.992          24.125      121754.702       -3419.443
  20726144.695          33.098      -43130.136        1201.653
  22457250.976          37.924       96176.418       -2700.452
  22084090.908          35.373       98340.734       -2765.814
 17 07 17 11 46 57.000336   0  9G05G16G18G20G21G25G26G29G31
  24906735.409          21.246       54374.157       -1493.546
  22049326.253          26.464      -91494.959        2494.966
  24078077.277          26.740      -95071.652        2594.427
  23047491.835          30.195      -23304.332         622.173
  20971265.076          32.821       -3169.633          73.788
  24629712.487          22.456      125173.491       -3416.769
  20725844.778          33.420      -44331.901        1198.613
  22457687.349          34.667       98877.036       -2703.001
  22084544.972          36.391      101106.967       -2769.317
 17 07 17 11 46 58.000336   0  9G05G16G18G20G21G25G26G29G31
  24907039.697          19.602       55867.288       -1499.848
  22048844.784          26.710      -93983.084        2487.619
  24077586.817          24.103      -97667.218        2588.616
  23047373.418          30.799      -23923.681         619.477
  20971247.391          32.482       -3236.215          68.633
  24630351.946          19.658      128598.608       -3423.840
  20725619.033          31.371      -45527.732        1194.806
  22458201.192          33.559      101583.058       -2705.286
  22085066.607          36.740      103872.402       -2773.094
 17 07 17 11 46 59.000336   0  9G05G16G18G20G21G25G26G29G31
  24907317.304          17.936       57359.106       -1499.336
  22048366.016          30.182      -96469.911        2487.225
  24077096.955          22.800     -100253.831        2587.032
  23047265.793          29.070      -24542.422         618.836
  20971233.601          30.690       -3308.914          75.173
  24631031.575          22.276      132022.754       -3423.159
  20725380.698          32.492      -46723.723        1196.114
  22458703.946          30.161      104288.818       -2704.516
  22085602.337          34.704      106644.545       -2771.568
 17 07 17 11 47 00.000336   0  9G05G16G18G20G21G25G26G29G31
  24907533.028          15.485       58855.138       -1499.955
  22047807.076          27.864      -98959.265        2490.522
  24076527.222          23.946     -102835.777        2587.373
  23047063.606          30.366      -25163.696         621.417
  20971150.132          29.664       -3387.060          73.994
  24631637.028          23.180      135442.614       -3416.002
  20725086.479          33.565      -47921.917        1198.576
  22459160.104          31.552      106991.946       -2701.717
  22086053.399          32.784      109414.137       -2768.711
 17 07 17 11 47 01.000336   0  9G05G16G18G20G21G25G26G29G31
  24907789.952          16.904       60353.164       -1498.562
  22047333.704          27.482     -101448.826        2489.020
  24076016.677          26.080     -105428.984        2590.655
  23046952.985          30.868      -25784.790         621.391
  20971129.746          33.503       -3460.053          72.868
  24632288.480          22.313      138864.769       -3421.301
  20724858.334          34.066      -49120.170        1198.292
  22459682.943          34.318      109694.877       -2702.557
  22086575.937          34.701      112183.763       -2769.509
 17 07 17 11 47 02.000336   0  9G05G16G18G20G21G25G26G29G31
  24908099.039          18.198       61858.269       -1500.533
  22046857.335          25.132     -103938.448        2489.773
  24075501.036          23.800     -108020.444        2594.939
  23046821.376          34.048      -26405.357         620.409
  20971116.854          34.693       -3532.673          72.580
  24632934.229          19.886      142291.611       -3422.131
  20724632.891          35.135      -50318.237        1197.891
  22460183.895          36.105      112397.484       -2702.835
  22087109.870          32.536      114953.753       -2770.525
 17 07 17 11 47 03.000336   0  9G05G16G18G20G21G25G26G29G31
  24908331.550          18.254       63364.420       -1501.603
  22046321.182          24.000     -106427.247        2488.332
  24074967.278          22.428     -110610.116        2589.288
  23046633.581          34.065      -27024.430         618.697
  20971039.982          33.621       -3603.802          71.051
  24633481.826          18.905      145717.377       -3422.761
  20724327.276          32.523      -51514.908        1196.353
  22460630.459          34.830      115101.264       -2704.169
  22087554.336          30.892      117724.923       -2772.165
 17 07 17 11 47 04.000336   0  9G05G16G18G20G21G25G26G29G31
  24908602.565          14.431       64863.583       -1497.936
  22045830.721          21.735     -108914.912        2481.187
  24074490.306          26.118     -113199.982        2589.893
  23046522.654          33.635      -27642.688         618.087
  20971018.396          31.638       -3673.936          70.186
  24634145.266          16.178      149140.458       -3422.221
  20724105.733          32.269      -52710.842        1195.428
  22461150.899          32.435      117805.383       -2703.974
  22088087.366          28.274      120496.716       -2771.289
 17 07 17 11 47 05.000336   0  9G05G16G18G20G21G25G26G29G31
  24908898.159          15.916       66356.079       -1500.197
  22045427.198          21.258     -111402.764        2486.021
  24073987.256          28.208     -115789.871        2589.646
  23046406.034          33.689      -28260.525         617.339
  20971009.405          31.579       -3743.870          69.381
  24634794.915          13.346      152565.159       -3421.253
  20723871.594          30.381      -53906.587        1195.125
  22461654.852          34.727      120509.456       -2704.343
  22088629.989          27.066      123268.732       -2772.535
 17 07 17 11 47 06.000336   0  9G05G16G18G20G21G25G26G29G31
  24909082.407          14.976       67854.323       -1499.721
  22044847.576          21.636     -113890.244        2488.414
  24073437.910          28.326     -118379.613        2589.677
  23046212.546          32.735      -28877.717         616.838
  20970926.533          30.794       -3813.224          68.851
  24635374.289          16.766      155990.796       -3422.441
  20723575.874          30.410      -55101.803        1194.791
  22462110.709          35.404      123213.723       -2704.611
  22089069.063          26.331      126041.124       -2772.335
 17 07 17 11 47 07.000336   0  9G05G16G18G20G21G25G26G29G31
  24909347.122          14.340       69357.319       -1497.843
  22044379.897          25.294     -116377.694        2487.736
  24072936.657          27.476     -120969.192        2589.481
  23046098.923          30.808      -29494.185         616.317
  20970908.547          30.525       -3881.980          68.548
  24636000.856          14.083      159416.362       -3420.909
  20723351.626          28.476      -56296.327        1193.691
  22462621.856          34.379      125918.239       -2704.439
  22089613.785          22.636      128814.439       -2771.532
 17 07 17 11 47 08.000336   0  9G05G16G18G20G21G25G26G29G31
  24909619.935          17.022       70852.675       -1497.206
  22043916.419          27.260     -118864.432        2486.933
  24072460.589          24.955     -123558.514        2587.789
  23045979.307          31.678      -30109.929         615.377
  20970891.157          29.381       -3950.058          67.332
  24636625.627          16.860      162837.654       -3422.931
  20723094.104          24.332      -57490.580        1195.633
  22463134.203          35.059      128622.953       -2704.791
  22090138.421          21.908      131592.801       -2775.350
 17 07 17 11 47 09.000335   0  9G05G16G18G20G21G25G26G29G31
  24909826.964          19.180       72354.864       -1501.939
  22043369.172          26.770     -121351.154        2487.150
  24071882.463          26.036     -126147.877        2588.489
  23045784.017          29.817      -30724.993         615.037
  20970813.090          29.970       -4017.571          66.587
  24637252.966          16.040      166251.711       -3422.154
  20722814.875          25.452      -58684.119        1192.192
  22463587.364          32.735      131327.862       -2704.826
  22090571.797          28.207      134369.773       -2774.804
 17 07 17 11 47 10.000335   0  9G05G16G18G20G21G25G26G29G31
  24910113.867          18.549       73862.867       -1503.441
  22042885.308          25.349     -123837.435        2485.828
  24071375.512          25.477     -128736.975        2589.784
  23045668.893          33.289      -31339.400         614.180
  20970790.304          31.062       -4084.416          66.880
  24637914.308          20.956      169675.808       -3422.730
  20722609.516          24.601      -59877.224        1192.826
  22464081.122          35.882      134032.925       -2704.871
  22091115.018          34.685      137144.447       -2774.938
 17 07 17 11 47 11.000335   0  9G05G16G18G20G21G25G26G29G31
  24910381.283          15.565       75373.561       -1503.405
  22042414.933          23.915     -126323.468        2486.466
  24070887.151          26.995     -131325.909        2588.772
  23045561.570          34.318      -31953.058         613.150
  20970785.208          31.164       -4150.501          66.108
  24638577.150          21.447      173100.046       -3421.166
  20722352.893          24.484      -61070.018        1190.354
  22464600.362          34.078      136738.418       -2705.668
  22091642.054          35.696      139919.456       -2775.075
 17 07 17 11 47 12.000335   0  9G05G16G18G20G21G25G26G29G31
  24910661.761          21.748       76881.514       -1506.697
  22041848.800          24.198     -128803.705        2487.212
  24070331.213          28.674     -133914.633        2588.746
  23045361.181          32.052      -32565.948         612.474
  20970703.240          33.240       -4216.011          64.990
  24639143.929          22.854      176524.490       -3425.373
  20722078.157          28.358      -62263.341        1190.805
  22465035.535          32.544      139443.877       -2705.792
  22092094.913          36.828      142694.877       -2775.254
 17 07 17 11 47 13.000335   0  9G05G16G18G20G21G25G26G29G31
  24910892.601          22.563       78388.410       -1508.275
  22041390.418          24.294     -131289.069        2490.294
  24069837.751          27.670     -136503.283        2588.924
  23045261.051          33.991      -33178.462         611.982
  20970691.544          32.484       -4280.952          65.108
  24639824.758          20.695      179948.859       -3424.304
  20721842.221          31.865      -63454.864        1191.285
  22465570.062          32.695      142149.709       -2705.818
  22092625.247          36.168      145471.013       -2775.564
 17 07 17 11 47 14.000335   0  9G05G16G18G20G21G25G26G29G31
  24911233.465          23.980       79895.800       -1507.825
  22040934.134          23.391     -133773.969        2485.309
  24069336.201          26.382     -139091.899        2588.263
  23045144.135          33.518      -33790.182         611.232
  20970669.662          31.664       -4345.215          63.927
  24640469.011          23.928      183373.663       -3425.034
  20721612.581          36.778      -64645.914        1190.519
  22466080.611          31.488      144855.666       -2706.072
  22093149.286          32.784      148247.584       -2776.820
 17 07 17 11 47 15.000335   0  9G05G16G18G20G21G25G26G29G31
  24911510.775          23.636       81403.730       -1507.765
  22040460.461          20.756     -136260.449        2479.120
  24068834.948          25.695     -141680.332        2589.032
  23045029.011          33.283      -34401.233         610.405
  20970658.568          33.777       -4409.053          63.409
  24641100.076          24.751      186798.654       -3425.930
  20721388.337          36.480      -65836.512        1189.938
  22466598.054          29.004      147561.842       -2705.497
  22093680.815          35.114      151024.320       -2776.633
 17 07 17 11 47 16.000335   0  9G05G16G18G20G21G25G26G29G31
  24911704.913          24.842       82912.599       -1509.483
  22039882.034          20.476     -138738.489        2479.668
  24068283.801          27.175     -144268.543        2588.363
  23044833.421          32.629      -35011.696         609.796
  20970579.597          37.422       -4472.213          62.663
  24641707.331          21.364      190223.915       -3430.556
  20721093.515          36.243      -67026.565        1189.781
  22467048.514          30.118      150268.287       -2706.665
  22094132.178          36.863      153801.784       -2777.713
 17 07 17 11 47 17.000335   0  9G05G16G18G20G21G25G26G29G31
  24912011.003          25.617       84422.017       -1509.866
  22039418.556          17.203     -141211.071        2479.971
  24067773.255          26.818     -146856.664        2587.879
  23044722.202          33.341      -35621.344         609.002
  20970564.010          37.565       -4534.681          62.159
  24642341.092          17.475      193654.138       -3432.004
  20720863.574          36.002      -68215.966        1188.977
  22467550.666          31.050      152974.822       -2706.880
  22094661.613          36.159      156579.698       -2777.832
 17 07 17 11 47 18.000335   0  9G05G16G18G20G21G25G26G29G31
  24912249.935          24.627       85932.328       -1511.356
  22038928.995          20.357     -143686.302        2482.097
  24067294.788          27.795     -149444.444        2587.841
  23044605.878          34.635      -36230.373         608.765
  20970558.613          38.092       -4596.448          61.441
  24642998.834          14.441      197092.114       -3432.872
  20720639.627          37.523      -69404.923        1188.582
  22468076.502          33.076      155681.716       -2706.418
  22095192.244          35.345      159358.286       -2778.900
 17 07 17 11 47 19.000335   0  9G05G16G18G20G21G25G26G29G31
  24912477.355          23.334       87442.764       -1507.218
  22038399.437          21.921     -146169.912        2483.152
  24066734.649          26.731     -152032.451        2588.177
  23044415.086          35.472      -36838.841         608.180
  20970469.451          37.718       -4657.835          61.160
  24643580.607          19.532      200526.779       -3430.693
  20720340.312          38.677      -70593.507        1188.331
  22468516.173          34.237      158388.679       -2706.957
  22095649.902          34.458      162137.046       -2778.925
 17 07 17 11 47 20.000335   0  9G05G16G18G20G21G25G26G29G31
  24912810.423          22.174       88954.012       -1504.405
  22037944.353          20.128     -148655.901        2488.467
  24066227.702          25.686     -154620.998        2589.703
  23044296.067          33.882      -37446.716         607.568
  20970454.160          35.882       -4718.540          59.976
  24644229.358          20.777      203957.705       -3425.792
  20720113.367          38.214      -71781.606        1188.252
  22469036.613          34.189      161095.623       -2707.750
  22096181.135          35.222      164916.401       -2779.467
 17 07 17 11 47 21.000335   0  9G05G16G18G20G21G25G26G29G31
  24913052.057          21.607       90456.417       -1506.514
  22037464.084          21.795     -151149.921        2486.544
  24065732.444          23.612     -157208.877        2588.517
  23044189.045          36.538      -38054.132         606.998
  20970452.363          35.580       -4778.992          60.020
  24644869.114          17.383      207384.845       -3422.167
  20719887.321          37.901      -72969.295        1187.051
  22469558.850          33.762      163802.676       -2707.629
  22096705.173          37.379      167695.816       -2780.060
 17 07 17 11 47 22.000335   0  9G05G16G18G20G21G25G26G29G31
  24913335.832          21.777       91962.867       -1512.690
  22036912.639          25.339     -153635.102        2479.325
  24065164.810          24.165     -159796.456        2587.739
  23044000.046          34.418      -38660.749         606.216
  20970370.993          36.337       -4838.664          59.370
  24645485.665          21.476      210812.256       -3424.452
  20719579.613          35.520      -74156.466        1186.710
  22469985.329          33.936      166509.930       -2707.664
  22097165.829          37.182      170475.958       -2780.744
 17 07 17 11 47 23.000335   0  9G05G16G18G20G21G25G26G29G31
  24913559.478          21.803       93476.067       -1515.545
  22036450.060          26.286     -156117.317        2482.146
  24064688.742          25.988     -162383.832        2587.556
  23043881.031          33.834      -39266.591         605.655
  20970352.705          36.444       -4897.710          58.994
  24646134.412          18.201      214238.573       -3429.898
  20719364.059          34.510      -75343.166        1186.460
  22470513.865          33.025      169217.521       -2706.839
  22097697.061          36.523      173256.626       -2780.889
 17 07 17 11 47 24.000335   0  9G05G16G18G20G21G25G26G29G31
  24913868.565          23.153       94990.417       -1511.601
  22035970.092          26.016     -158599.297        2481.465
  24064186.289          27.296     -164971.101        2587.276
  23043773.704          35.254      -39871.756         604.999
  20970349.407          36.097       -4956.009          58.047
  24646765.176          19.842      217659.686       -3427.824
  20719132.922          33.352      -76529.177        1185.809
  22471025.912          33.394      171925.438       -2707.923
  22098218.701          35.581      176037.831       -2781.388
 17 07 17 11 47 25.000334   0  9G05G16G18G20G21G25G26G29G31
  24914084.289          24.224       96505.049       -1515.236
  22035422.548          27.603     -161080.828        2481.053
  24063627.350          27.608     -167558.098        2586.694
  23043585.608          34.633      -40476.172         603.679
  20970266.540          36.599       -5013.733          57.316
  24647364.037          14.511      221080.005       -3426.143
  20718837.198          33.314      -77714.720        1185.159
  22471485.965          31.559      174633.526       -2708.071
  22098680.556          35.777      178819.512       -2782.035
 17 07 17 11 47 26.000334   0  9G05G16G18G20G21G25G26G29G31
  24914318.428          23.379       98020.276       -1515.548
  22034965.361          25.710     -163562.040        2484.096
  24063134.490          24.482     -170145.105        2588.298
  23043467.793          36.078      -41079.946         603.540
  20970254.547          34.806       -5070.572          56.619
  24647992.999          14.369      224506.292       -3426.121
  20718613.255          34.261      -78899.668        1185.164
  22471980.325          31.194      177341.780       -2707.996
  22099205.790          33.954      181601.787       -2782.301
 17 07 17 11 47 27.000334   0  8G05G16G18G20G21G26G29G31
  24914647.901          22.079       99536.318       -1518.586
  22034487.495          23.634     -166043.291        2477.536
  24062626.043          22.638     -172731.143        2589.480
  23043346.976          37.459      -41682.975         602.755
  20970237.158          32.155       -5127.049          56.303
  20718387.811          33.154      -80083.608        1184.593
  22472480.679          32.251      180050.345       -2709.120
  22099748.413          31.966      184384.346       -2783.238
 17 07 17 11 47 28.000334   0  8G05G16G18G20G21G26G29G31
  24914804.442          21.832      101052.807       -1518.364
  22033864.575          23.376     -168523.887        2477.419
  24062042.996          26.159     -175317.595        2586.334
  23043093.699          37.043      -42285.246         601.767
  20970091.807          35.524       -5182.811          55.185
  20718021.213          38.120      -81267.392        1183.212
  22472870.456          34.263      182759.284       -2709.448
  22100122.602          34.810      187167.734       -2783.686
 17 07 17 11 47 29.000334   0  8G05G16G18G20G21G26G29G31
  24915103.033          19.959      102570.644       -1515.639
  22033395.696          23.776     -170996.717        2477.194
  24061542.040          24.892     -177903.747        2586.210
  23042979.780          37.586      -42886.684         600.846
  20970075.622          37.265       -5237.762          54.662
  20717792.772          39.316      -82450.492        1182.553
  22473377.106          36.403      185468.486       -2709.561
  22100655.933          35.219      189951.813       -2784.672
 17 07 17 11 47 30.000334   0  8G05G16G18G20G21G26G29G31
  24915392.336          19.145      104088.133       -1516.706
  22032925.622          25.383     -173476.522        2479.321
  24061086.057          23.096     -180489.804        2586.101
  23042866.755          36.502      -43487.474         600.438
  20970065.125          37.576       -5292.071          53.859
  20717570.626          37.756      -83633.091        1182.378
  22473891.250          36.898      188177.865       -2709.690
  22101181.769          31.545      192736.207       -2784.571
 17 07 17 11 47 31.000334   0  8G05G16G18G20G21G26G29G31
  24915561.293          21.047      105607.012       -1518.371
  22032383.174          27.121     -175955.868        2479.243
  24060493.543          23.006     -183075.714        2586.121
  23042675.064          35.687      -44087.566         599.823
  20969980.758          37.279       -5345.663          53.287
  20717271.608          39.256      -84815.152        1181.712
  22474337.217          37.731      190887.494       -2709.868
  22101641.526          33.105      195521.196       -2785.289
 17 07 17 11 47 32.000334   0  8G05G16G18G20G21G26G29G31
  24915838.599          22.483      107126.485       -1520.943
  22031908.004          27.622     -178435.028        2479.150
  24059986.894          24.722     -185661.399        2584.905
  23042565.939          37.102      -44687.041         599.131
  20969975.361          37.041       -5398.780          52.919
  20717051.857          38.185      -85996.788        1181.255
  22474853.460          38.252      193597.278       -2710.083
  22102175.459          33.245      198306.440       -2785.544
 17 07 17 11 47 33.000334   0  8G05G16G18G20G21G26G29G31
  24916178.263          24.672      108646.695       -1520.254
  22031446.921          24.321     -180913.728        2475.970
  24059489.235          26.073     -188247.084        2585.722
  23042447.221          37.543      -45285.770         598.261
  20969963.670          37.514       -5451.265          52.303
  20716825.214          38.278      -87177.939        1181.033
  22475361.008          36.159      196307.326       -2709.852
  22102707.887          33.391      201092.409       -2785.893
 17 07 17 11 47 34.000333   0  8G05G16G18G20G21G26G29G31
  24916427.566          24.086      110167.401       -1520.192
  22030912.269          24.135     -183392.168        2478.009
  24058933.298          26.286     -190832.701        2585.666
  23042261.525          36.129      -45883.924         597.439
  20969888.896          38.037       -5503.181          51.759
  20716529.795          38.529      -88358.531        1180.151
  22475816.864          35.381      199017.519       -2710.525
  22103163.150          34.089      203878.631       -2786.569
 17 07 17 11 47 35.000333   0  8G05G16G18G20G21G26G29G31
  24916700.077          24.417      111688.908       -1521.777
  22030452.983          22.112     -185870.253        2477.185
  24058437.738          24.436     -193418.022        2585.421
  23042139.508          34.476      -46481.435         596.962
  20969876.305          36.733       -5554.443          50.969
  20716308.548          38.351      -89538.614        1179.866
  22476333.107          35.523      201727.795       -2710.618
  22103693.480          33.940      206665.431       -2787.279
 17 07 17 11 47 36.000333   0  8G05G16G18G20G21G26G29G31
  24916976.484          24.256      113210.936       -1522.404
  22029962.523          24.501     -188348.232        2478.105
  24057958.371          24.509     -196003.305        2585.062
  23042026.789          33.707      -47078.271         596.110
  20969867.912          37.411       -5605.146          50.355
  20716080.107          38.627      -90718.251        1179.323
  22476846.951          35.585      204438.379       -2710.885
  22104221.118          34.000      209452.625       -2787.252
 17 07 17 11 47 37.000333   0  8G05G16G18G20G21G26G29G31
  24917176.621          23.503      114733.750       -1522.940
  22029417.077          26.237     -190825.496        2477.288
  24057402.429          24.303     -198588.249        2584.884
  23041845.887          34.306      -47674.268         595.913
  20969783.544          36.341       -5655.019          49.680
  20715784.985          38.059      -91897.203        1178.598
  22477295.317          36.149      207149.226       -2710.886
  22104681.773          34.335      212240.515       -2787.874
 17 07 17 11 47 38.000333   0  8G05G16G18G20G21G26G29G31
  24917474.614          23.691      116257.392       -1523.982
  22028944.303          27.167     -193302.521        2476.756
  24056893.385          25.204     -201173.055        2584.405
  23041734.964          34.280      -48269.576         594.756
  20969776.049          37.182       -5704.296          49.021
  20715563.437          37.461      -93075.581        1178.111
  22477805.264          38.890      209860.340       -2711.456
  22105214.201          35.607      215028.836       -2788.786
 17 07 17 11 47 39.000333   0  8G05G16G18G20G21G26G29G31
  24917787.601          24.406      117781.486       -1524.033
  22028462.838          26.070     -195779.271        2477.224
  24056424.807          24.477     -203757.669        2584.275
  23041622.240          33.855      -48864.199         594.182
  20969763.158          37.169       -5752.909          48.206
  20715335.594          37.892      -94253.418        1177.550
  22478326.302          35.529      212571.752       -2711.869
  22105751.432          34.289      217817.731       -2789.097
 17 07 17 11 47 40.000333   0  8G05G16G18G20G21G26G29G31
  24918093.089          23.547      119306.484       -1525.241
  22027978.372          24.855     -198255.565        2475.527
  24055908.263          25.482     -206342.006        2584.035
  23041508.617          33.157      -49458.006         593.861
  20969760.161          37.191       -5800.891          47.384
  20715112.248          39.546      -95430.717        1176.878
  22478843.744          35.149      215283.329       -2711.687
  22106278.764          36.316      220607.217       -2789.807
 17 07 17 11 47 41.000333   0  8G05G16G18G20G21G26G29G31
  24918310.313          23.344      120831.821       -1525.990
  22027445.216          25.367     -200731.778        2475.701
  24055326.242          25.776     -208926.400        2584.298
  23041315.129          31.800      -50051.315         592.716
  20969671.296          37.242       -5848.419          47.274
  20714811.433          39.361      -96607.698        1176.736
  22479282.517          34.850      217995.055       -2711.905
  22106733.726          34.870      223397.030       -2790.462
 17 07 17 11 47 42.000333   0  8G05G16G18G20G21G26G29G31
  24918575.927          22.270      122358.089       -1526.121
  22026975.142          26.745     -203207.566        2475.733
  24054816.896          24.059     -211510.490        2584.552
  23041206.602          34.215      -50643.915         591.772
  20969671.597          36.516       -5895.181          46.502
  20714594.985          39.248      -97783.941        1175.883
  22479800.557          35.093      220707.043       -2712.620
  22107263.759          33.625      226187.317       -2790.946
 17 07 17 11 47 43.000333   0  8G05G16G18G20G21G26G29G31
  24918851.737          19.585      123887.933       -1526.420
  22026500.871          25.247     -205682.853        2475.189
  24054365.407          23.816     -214096.083        2586.554
  23041109.169          33.965      -51235.691         591.190
  20969659.006          34.149       -5941.021          45.812
  20714374.636          36.092      -98959.574        1175.703
  22480317.097          34.477      223419.420       -2712.513
  22107794.992          34.952      228978.216       -2791.245
 17 07 17 11 47 44.000333   0  8G05G16G18G20G21G26G29G31
  24919101.039          19.349      125417.894       -1527.393
  22025953.322          28.034     -208157.648        2474.260
  24053827.456          24.271     -216679.652        2583.392
  23040924.672          33.821      -51826.646         590.713
  20969570.743          33.327       -5986.389          45.269
  20714068.123          38.051     -100134.545        1174.528
  22480757.667          33.198      226132.146       -2712.571
  22108259.543          36.367      231769.844       -2791.573
 17 07 17 11 47 45.000333   0  8G05G16G18G20G21G26G29G31
  24919342.070          17.612      126941.737       -1527.694
  22025485.046          25.919     -210632.146        2474.244
  24053282.132          24.478     -219262.984        2583.510
  23040802.957          33.760      -52416.850         589.590
  20969570.141          36.575       -6031.040          44.003
  20713849.572          37.061     -101309.072        1174.064
  22481273.011          36.144      228845.022       -2713.584
  22108782.980          36.808      234562.044       -2792.883
 17 07 17 11 47 46.000333   0  8G05G16G18G20G21G26G29G31
  24919588.502          17.022      128468.683       -1528.100
  22025025.765          25.511     -213106.116        2473.929
  24052808.459          26.428     -221846.131        2583.677
  23040695.930          33.763      -53006.357         588.640
  20969558.449          36.928       -6074.954          43.405
  20713627.427          38.498     -102482.923        1173.489
  22481793.451          33.157      231558.189       -2713.737
  22109322.606          37.527      237354.702       -2793.046
 17 07 17 11 47 47.000332   0  8G05G16G18G20G21G26G29G31
  24919913.351          20.346      129998.644       -1528.782
  22024481.218          22.677     -215579.467        2474.016
  24052240.528          25.631     -224429.002        2582.784
  23040509.034          35.754      -53595.109         588.408
  20969476.782          36.962       -6118.215          42.977
  20713331.406          37.091     -103656.184        1172.910
  22482224.126          32.694      234271.718       -2713.297
  22109778.467          36.285      240148.037       -2793.701
 17 07 17 11 47 48.000332   0  8G05G16G18G20G21G26G29G31
  24920156.481          20.312      131529.169       -1529.156
  22023986.561          23.095     -218058.074        2474.246
  24051723.684          23.892     -227011.786        2583.173
  23040395.115          35.749      -54183.054         587.862
  20969471.683          36.595       -6160.740          42.201
  20713105.962          36.442     -104828.893        1172.466
  22482753.562          31.730      236985.533       -2714.059
  22110304.002          36.354      242941.849       -2794.272
 17 07 17 11 47 49.000332   0  8G05G16G18G20G21G26G29G31
  24920443.083          19.268      133060.762       -1529.292
  22023520.980          23.973     -220531.493        2472.484
  24051259.307          24.772     -229594.301        2582.631
  23040284.192          34.467      -54770.314         586.567
  20969458.791          35.329       -6202.595          41.238
  20712878.119          35.902     -106000.882        1171.559
  22483268.003          33.457      239699.470       -2714.522
  22110841.830          36.545      245736.159       -2794.771
 17 07 17 11 47 50.000332   0  8G05G16G18G20G21G26G29G31
  24920718.168          20.124      134593.072       -1528.847
  22022997.120          23.011     -223003.889        2472.256
  24050680.584          21.658     -232176.491        2583.483
  23040106.889          35.440      -55356.723         586.006
  20969383.720          34.656       -6243.694          40.772
  20712593.192          36.050     -107172.374        1171.401
  22483718.768          34.099      242413.901       -2714.808
  22111307.581          34.522      248531.087       -2795.421
 17 07 17 11 47 51.000332   0  8G05G16G18G20G21G26G29G31
  24921029.951          18.839      136125.733       -1531.693
  22022512.353          25.482     -225476.092        2472.080
  24050175.134          21.546     -234758.637        2585.478
  23039990.566          34.953      -55942.525         585.546
  20969379.524          36.254       -6284.251          40.416
  20712363.250          36.943     -108343.254        1170.814
  22484226.617          35.307      245128.264       -2714.408
  22111839.712          33.443      251326.483       -2795.406
 17 07 17 11 47 52.000332   0  8G05G16G18G20G21G26G29G31
  24921320.450          19.819      137659.534       -1532.290
  22022027.290          22.796     -227947.427        2474.647
  24049711.054          23.952     -237340.610        2581.401
  23039871.853          34.121      -56527.752         584.755
  20969376.226          36.907       -6324.275          39.447
  20712149.498          37.046     -109513.815        1169.964
  22484748.553          33.408      247842.870       -2714.152
  22112373.942          33.656      254122.282       -2796.198
 17 07 17 11 47 53.000332   0  8G05G16G18G20G21G26G29G31
  24921525.682          19.301      139196.969       -1531.964
  22021508.224          26.870     -230418.736        2471.294
  24049158.410          24.897     -239922.201        2581.230
  23039688.852          34.612      -57111.955         583.617
  20969290.959          36.470       -6363.270          38.207
  20711851.378          38.159     -110683.515        1169.171
  22485192.120          34.703      250558.120       -2715.213
  22112832.202          35.695      256918.945       -2797.437
 17 07 17 11 47 54.000332   0  8G05G16G18G20G21G26G29G31
  24921832.670          19.217      140733.328       -1532.485
  22021038.150          26.376     -232889.569        2470.131
  24048653.261          25.363     -242503.619        2581.461
  23039578.226          34.169      -57695.406         583.022
  20969286.161          35.652       -6401.652          37.636
  20711629.233          37.584     -111852.558        1168.602
  22485704.167          35.054      253273.557       -2715.724
  22113362.833          38.653      259716.106       -2797.478
 17 07 17 11 47 55.000332   0  8G05G16G18G20G21G26G29G31
  24922149.252          19.262      142271.500       -1533.363
  22020561.179          24.225     -235359.774        2468.306
  24048164.899          25.377     -245084.749        2581.140
  23039479.598          33.137      -58277.964         582.243
  20969275.669          35.025       -6439.238          37.246
  20711408.885          36.476     -113020.993        1167.711
  22486223.110          33.046      255989.419       -2716.338
  22113893.764          38.743      262513.939       -2798.173
 17 07 17 11 47 56.000332   0  8G05G16G18G20G21G26G29G31
  24922378.766          18.307      143805.204       -1534.429
  22020013.630          21.151     -237833.002        2470.105
  24047598.465          25.153     -247665.490        2580.295
  23039287.305          33.362      -58859.912         581.806
  20969204.193          35.484       -6476.138          36.536
  20711111.668          36.745     -114188.850        1167.666
  22486669.975          33.346      258705.467       -2716.895
  22114359.816          37.796      265312.294       -2798.522
 17 07 17 11 47 57.000332   0  8G05G16G18G20G21G26G29G31
  24922655.177          19.403      145335.762       -1535.627
  22019538.461          23.691     -240302.825        2469.448
  24047113.698          25.878     -250246.272        2580.531
  23039174.882          34.077      -59441.098         580.671
  20969197.596          35.329       -6512.439          35.801
  20710893.418          35.833     -115356.207        1167.139
  22487195.807          34.756      261421.682       -2716.572
  22114889.251          37.135      268111.148       -2799.116
 17 07 17 11 47 58.000332   0  8G05G16G18G20G21G26G29G31
  24922935.184          19.503      146874.776       -1536.191
  22019087.573          22.412     -242770.411        2471.983
  24046614.844          28.467     -252826.328        2579.711
  23039073.850          34.349      -60021.088         579.303
  20969189.801          34.439       -6547.609          34.445
  20710668.873          34.330     -116522.391        1165.688
  22487710.854          32.980      264138.778       -2716.845
  22115421.082          38.208      270910.985       -2800.324
 17 07 17 11 47 59.000331   0  8G05G16G18G20G21G26G29G31
  24923157.203          16.989      148413.967       -1537.117
  22018552.916          18.928     -245237.797        2470.841
  24046073.294          28.672     -255405.965        2579.714
  23038892.350          33.147      -60600.164         578.636
  20969102.139          32.809       -6581.938          33.833
  20710381.246          34.012     -117687.964        1165.430
  22488159.216          31.079      266856.149       -2717.497
  22115882.640          36.606      273711.643       -2801.035
 17 07 17 11 48 00.000331   0  8G05G16G18G20G21G26G29G31
  24923448.002          19.504      149953.527       -1538.778
  22018130.809          19.483     -247706.046        2470.768
  24045580.736          30.529     -257985.680        2579.560
  23038786.226          35.079      -61178.849         578.380
  20969099.740          35.526       -6615.859          33.519
  20710156.701          38.549     -118853.212        1165.035
  22488667.065          35.355      269573.532       -2717.427
  22116408.773          38.346      276512.422       -2801.091
 17 07 17 11 48 01.000331   0  8G05G16G18G20G21G26G29G31
  24923728.008          22.015      151494.377       -1541.029
  22017646.644          19.144     -250174.550        2470.416
  24045086.676          33.110     -260564.910        2579.090
  23038680.099          36.025      -61756.422         577.060
  20969086.548          35.979       -6648.903          32.394
  20709936.954          39.220     -120017.655        1163.926
  22489185.708          35.097      272291.561       -2718.080
  22116950.201          38.909      279314.044       -2802.036
 17 07 17 11 48 02.000331   0  8G05G16G18G20G21G26G29G31
  24923917.648          22.597      153036.400       -1543.410
  22017097.900          25.064     -252641.152        2466.466
  24044526.839          33.767     -263143.492        2578.427
  23038496.802          34.839      -62332.888         576.071
  20969016.271          36.738       -6680.670          31.367
  20709640.034          40.407     -121180.933        1162.989
  22489637.066          33.511      275010.244       -2718.878
  22117412.653          39.177      282116.625       -2802.972
 17 07 17 11 48 03.000331   0  8G05G16G18G20G21G26G29G31
  24924242.925          23.048      154579.558       -1544.158
  22016623.328          28.666     -255106.923        2465.449
  24044023.788          32.080     -265721.332        2577.560
  23038393.370          36.055      -62908.016         574.360
  20969009.077          37.503       -6711.265          30.176
  20709421.484          40.510     -122343.164        1161.773
  22490157.807          34.076      277729.766       -2720.013
  22117947.184          40.653      284920.371       -2804.229
 17 07 17 11 48 04.000331   0  8G05G16G18G20G21G26G29G31
  24924521.731          23.723      156123.933       -1547.782
  22016154.755          27.230     -257571.952        2464.871
  24043532.429          31.035     -268298.564        2577.324
  23038270.756          35.234      -63482.008         573.717
  20969004.580          37.030       -6740.779          29.125
  20709199.940          39.969     -123504.379        1160.796
  22490664.456          32.945      280450.005       -2720.756
  22118478.116          40.522      287725.049       -2805.011
 17 07 17 11 48 05.000331   0  8G05G16G18G20G21G26G29G31
  24924742.555          21.588      157669.218       -1542.244
  22015614.400          26.869     -260036.317        2463.580
  24042976.788          31.193     -270875.295        2577.055
  23038099.150          37.086      -64055.047         572.900
  20968929.208          36.982       -6769.365          28.063
  20708909.612          40.153     -124664.772        1159.932
  22491110.122          33.397      283170.736       -2720.830
  22118941.768          40.210      290530.520       -2805.795
 17 07 17 11 48 06.000331   0  8G05G16G18G20G21G26G29G31
  24925094.810          22.335      159215.185       -1538.433
  22015152.720          26.081     -262500.419        2464.025
  24042498.918          30.959     -273451.781        2576.569
  23037982.230          37.663      -64627.270         571.797
  20968923.811          37.796       -6797.243          27.394
  20708687.767          40.628     -125824.558        1159.688
  22491623.067          33.527      285891.679       -2720.852
  22119474.200          41.070      293336.573       -2806.401
 17 07 17 11 48 07.000331   0  8G05G16G18G20G21G26G29G31
  24925399.996          21.333      160762.263       -1544.750
  22014655.663          24.107     -264964.041        2465.827
  24042003.363          31.099     -276027.994        2576.497
  23037869.209          37.392      -65198.705         571.061
  20968916.914          38.061       -6824.395          26.842
  20708467.122          40.474     -126983.684        1158.767
  22492146.207          34.244      288612.949       -2720.738
  22120013.826          39.671      296143.285       -2806.790
 17 07 17 11 48 08.000331   0  8G05G16G18G20G21G26G29G31
  24925613.923          20.281      162309.031       -1546.757
  22014088.932          20.752     -267423.451        2461.086
  24041433.329          31.820     -278604.158        2575.966
  23037690.108          36.943      -65769.673         570.455
  20968840.940          38.041       -6851.112          26.459
  20708174.399          41.460     -128142.524        1158.575
  22492594.267          36.319      291334.334       -2721.550
  22120469.984          39.456      298950.249       -2807.084
 17 07 17 11 48 09.000331   0  8G05G16G18G20G21G26G29G31
  24925887.935          19.887      163857.606       -1548.702
  22013615.259          17.612     -269886.931        2456.828
  24040932.076          31.452     -281180.488        2576.648
  23037581.581          37.094      -66340.129         570.308
  20968836.743          38.627       -6877.407          26.298
  20707950.753          40.308     -129300.997        1158.458
  22493103.918          35.255      294055.717       -2721.204
  22121004.514          39.266      301757.462       -2807.206
 17 07 17 11 48 10.000331   0  8G05G16G18G20G21G26G29G31
  24926158.649          18.763      165405.886       -1546.046
  22013251.911          18.746     -272349.389        2457.053
  24040441.315          30.953     -283756.761        2576.167
  23037474.856          36.431      -66910.079         569.266
  20968833.445          38.935       -6903.263          25.463
  20707729.807          40.077     -130459.165        1157.766
  22493629.754          33.623      296777.073       -2721.659
  22121542.343          39.567      304564.990       -2807.738
 17 07 17 11 48 11.000330   0  8G05G16G18G20G21G26G29G31
  24926322.083          19.311      166954.531       -1547.077
  22012604.709          20.253     -274811.255        2459.613
  24039807.606          30.534     -286333.190        2576.149
  23037221.880          36.863      -67479.643         569.120
  20968689.594          38.954       -6928.735          25.207
  20707364.107          39.341     -131617.050        1157.957
  22494000.345          34.724      299498.396       -2721.255
  22121931.522          40.394      307372.744       -2807.814
 17 07 17 11 48 12.000330   0  8G05G16G18G20G21G26G29G31
  24926606.587          19.499      168503.564       -1547.956
  22012130.438          18.323     -277274.757        2461.077
  24039328.536          32.261     -288909.868        2577.141
  23037109.457          37.011      -68048.914         569.152
  20968682.702          38.834       -6954.013          25.285
  20707141.063          39.002     -132774.812        1157.855
  22494518.385          34.295      302219.488       -2720.916
  22122470.250          41.153      310180.643       -2807.720
 17 07 17 11 48 13.000330   0  8G05G16G18G20G21G26G29G31
  24926924.666          20.291      170052.982       -1548.851
  22011624.386          22.182     -279737.874        2460.758
  24038826.084          32.059     -291486.494        2576.446
  23036995.838          36.473      -68617.761         568.602
  20968678.801          37.882       -6978.827          24.625
  20706926.412          39.871     -133932.230        1157.376
  22495034.327          35.516      304940.610       -2721.007
  22123000.584          41.100      312988.796       -2808.253
 17 07 17 11 48 14.000330   0  8G05G16G18G20G21G26G29G31
  24927147.287          20.970      171602.726       -1550.024
  22011078.639          19.947     -282201.057        2460.944
  24038259.052          30.699     -294063.444        2577.003
  23036823.631          37.690      -69186.203         568.042
  20968599.233          37.096       -7003.443          24.388
  20706631.887          39.068     -135089.584        1157.482
  22495490.489          35.098      307661.515       -2720.623
  22123466.635          41.830      315797.021       -2808.466
 17 07 17 11 48 15.000330   0  8G05G16G18G20G21G26G29G31
  24927400.014          21.323      173152.881       -1549.511
  22010598.671          20.948     -284665.457        2454.877
  24037768.291          30.114     -296640.443        2577.312
  23036716.007          37.977      -69754.262         567.934
  20968593.836          36.822       -7027.692          24.418
  20706411.840          39.869     -136246.558        1156.938
  22496002.535          36.172      310382.510       -2720.843
  22124003.862          42.158      318605.520       -2808.615
 17 07 17 11 48 16.000330   0  8G05G16G18G20G21G26G29G31
  24927634.026          19.625      174702.552       -1553.296
  22010067.613          26.711     -287128.357        2462.701
  24037192.865          28.895     -299217.519        2576.994
  23036536.304          38.892      -70321.893         567.482
  20968519.660          37.071       -7051.565          23.703
  20706120.919          40.343     -137403.301        1156.635
  22496449.400          37.801      313103.316       -2720.647
  22124463.021          42.246      321414.210       -2808.726
 17 07 17 11 48 17.000330   0  8G05G16G18G20G21G26G29G31
  24927926.923          16.136      176258.495       -1553.325
  22009600.536          29.021     -289591.278        2462.709
  24036700.905          27.180     -301794.955        2577.589
  23036431.376          38.366      -70889.252         567.201
  20968510.970          37.099       -7075.220          23.562
  20705902.669          39.901     -138559.960        1156.519
  22496962.345          35.063      315824.045       -2720.634
  22124999.646          42.325      324223.039       -2808.973
 17 07 17 11 48 18.000330   0  8G05G16G18G20G21G26G29G31
  24928237.808          14.261      177813.347       -1552.134
  22009140.356          26.723     -292054.206        2463.478
  24036221.538          27.743     -304372.303        2577.351
  23036323.752          38.218      -71456.152         566.685
  20968509.469          37.461       -7098.433          23.178
  20705679.620          39.751     -139716.278        1156.056
  22497474.988          33.588      318544.740       -2720.763
  22125532.379          42.981      327032.121       -2809.265
 17 07 17 11 48 19.000329   0  8G05G16G18G20G21G26G29G31
  24928518.887          16.356      179362.239       -1550.016
  22008592.210          25.644     -294516.996        2462.291
  24035662.298          28.347     -306949.831        2577.207
  23036147.649          37.617      -72022.591         566.349
  20968429.900          37.121       -7121.263          22.464
  20705386.897          39.205     -140872.317        1155.765
  22497927.250          35.282      321265.392       -2720.694
  22125999.330          42.649      329841.400       -2809.428
 17 07 17 11 48 20.000329   0  8G05G16G18G20G21G26G29G31
  24928797.392          15.379      180906.605       -1551.900
  22008143.421          24.214     -296979.509        2462.810
  24035170.939          28.326     -309527.409        2577.322
  23036042.119          39.139      -72588.566         565.839
  20968426.301          37.297       -7143.744          22.426
  20705171.047          37.611     -142028.113        1155.905
  22498443.493          34.769      323985.996       -2720.547
  22126534.161          42.225      332650.986       -2809.669
 17 07 17 11 48 21.000329   0  8G05G16G18G20G21G26G29G31
  24929110.676          14.128      182461.247       -1553.098
  22007680.541          23.887     -299442.003        2462.374
  24034697.864          29.872     -312104.912        2577.334
  23035929.399          39.490      -73153.959         564.955
  20968423.003          37.434       -7165.709          21.911
  20704952.500          38.017     -143183.413        1155.217
  22498966.031          35.071      326706.699       -2720.834
  22127066.589          41.489      335460.925       -2810.148
 17 07 17 11 48 22.000329   0  8G05G16G18G20G21G26G29G31
  24929298.820          14.186      184016.916       -1553.819
  22007120.402          24.200     -301904.235        2462.084
  24034133.231          29.628     -314682.384        2577.209
  23035753.893          38.978      -73718.911         564.663
  20968344.032          37.353       -7187.167          21.279
  20704655.580          38.098     -144338.363        1154.748
  22499409.598          34.111      329427.473       -2720.554
  22127530.543          41.469      338271.225       -2810.601
 17 07 17 11 48 23.000329   0  8G05G16G18G20G21G26G29G31
  24929463.105          13.961      185600.521       -1552.907
  22006671.312          27.305     -304366.410        2462.079
  24033649.066          29.359     -317259.972        2577.449
  23035648.368          39.141      -74283.317         564.317
  20968342.235          37.924       -7208.241          20.822
  20704442.426          38.427     -145493.028        1154.517
  22499916.845          32.998      332148.251       -2720.696
  22128065.073          41.402      341081.773       -2810.630
 17 07 17 11 48 24.000329   0  8G05G16G18G20G21G26G29G31
