     3.03           OBSERVATION DATA    M: Mixed            RINEX VERSION / TYPE
ANDROID_RINEX       UNKN                20200706 163514 UTC PGM / RUN BY / DATE
Generated by Hi-target android_rinex program                COMMENT
Four doubts or inquiries, reach us at Nander@hitargetgroup.com.cnCOMMENT
UNKN                                                        MARKER NAME
UNKN                                                        MARKER TYPE
UNKN                UNKN                                    OBSERVER / AGENCY
UNKN                UNKN                AndroidOS >7.0      REC # / TYPE / VERS
UNKN                internal                                ANT # / TYPE
        0.0000        0.0000        0.0000                  APPROX POSITION XYZ
        0.0000        0.0000        0.0000                  ANTENNA: DELTA H/E/N
G    8 C1C L1C D1C S1C C5Q L5Q D5Q S5Q                      SYS / # / OBS TYPES
R    4 C1C L1C D1C S1C                                      SYS / # / OBS TYPES
E   12 C1C L1C D1C S1C C5I L5I D5I S5I C7I L7I D7I S7I      SYS / # / OBS TYPES
C    4 C2I L2I D2I S2I                                      SYS / # / OBS TYPES
J    8 C1C L1C D1C S1C C5Q L5Q D5Q S5Q                      SYS / # / OBS TYPES"
  2020    07    06    08    24    30.000004                 TIME OF FIRST OBS
 24 R01  1 R02 -4 R03  5 R04  6 R05  1 R06 -4 R07  5 R08  6 GLONASS SLOT / FRQ #
    R09 -2 R10 -5 R11  0 R12 -1 R13 -2 R14 -7 R15  0 R16 -1 GLONASS SLOT / FRQ #
    R17  4 R18 -3 R19  3 R20  2 R21  4 R22 -3 R23  3 R24  2 GLONASS SLOT / FRQ #
G L1C                                                       SYS / PHASE SHIFT
G L5Q -0.25000                                              SYS / PHASE SHIFT
R L1C                                                       SYS / PHASE SHIFT
E L1B                                                       SYS / PHASE SHIFT
E L1C +0.50000                                              SYS / PHASE SHIFT
E L5Q -0.25000                                              SYS / PHASE SHIFT
C L2I                                                       SYS / PHASE SHIFT
J L1C                                                       SYS / PHASE SHIFT
J L5Q -0.25000                                              SYS / PHASE SHIFT
 C1C    0.000 C1P    0.000 C2C    0.000 C2P    0.000        GLONASS COD/PHS/BIS
                                                            END OF HEADER
> 20 07 06 08 24 30.000004  0 32
G02  21796171.124   489683817.187         861.995          42.000           0.000           0.000           0.000           0.000
G05  20586449.795   491920066.106        -103.427          43.000           0.000           0.000           0.000           0.000
G06  22512368.710   491947676.808        -794.757          39.000    22512367.510   377445504.426        -594.091          30.000
G09  24711344.889   492027332.550       -2806.773          28.000           0.000           0.000           0.000           0.000
G12  22912886.936   491972558.646       -1426.742          37.000           0.000           0.000           0.000           0.000
G13  22372903.158   489585030.197        3347.796          40.000           0.000           0.000           0.000           0.000
G15  24319170.489   489561223.440        3952.092          35.000           0.000           0.000           0.000           0.000
G17  23830093.568   492041204.311       -3153.443          34.000           0.000           0.000           0.000           0.000
G19  22540113.304   492031105.562       -2901.266          40.000           0.000           0.000           0.000           0.000
G25  23981108.921   491923698.440        -197.152          31.000           0.000           0.000           0.000           0.000
R18  20807889.099   756964431.981       -1044.857          39.000           0.000           0.000           0.000           0.000
G29  24495487.725   489573743.553        3636.074          37.000           0.000           0.000           0.000           0.000
R05  20173747.405   543376789.325        2441.653          40.000           0.000           0.000           0.000           0.000
R03  22954224.720   734114295.012       -3826.335          31.000           0.000           0.000           0.000           0.000
R04  19466305.557   711715046.049       -1502.303          39.000           0.000           0.000           0.000           0.000
C06  37078202.594   485210609.079        1396.034          36.000           0.000           0.000           0.000           0.000
C07  39098299.209   487516615.148       -1318.778          32.000           0.000           0.000           0.000           0.000
C08  37262191.220   485243927.406         559.890          36.000           0.000           0.000           0.000           0.000
C01  37460958.419   485260630.444         141.431          36.000           0.000           0.000           0.000           0.000
C09  38625286.671   485204529.169        1551.511          33.000           0.000           0.000           0.000           0.000
C03  36052960.352   485261109.629         128.684          39.000           0.000           0.000           0.000           0.000
C10  38352142.762   487521996.243       -1454.980          34.000           0.000           0.000           0.000           0.000
C02  37096375.713       -6290.629         166.909          35.000           0.000           0.000           0.000           0.000
C11  25118530.504   485147740.787        2982.782          34.000           0.000           0.000           0.000           0.000
C12  21700164.087   485217521.175        1217.766          42.000           0.000           0.000           0.000           0.000
C13  37345181.267   485248868.688         435.334          37.000           0.000           0.000           0.000           0.000
C16  37644312.982      -46936.562        1564.760          38.000           0.000           0.000           0.000           0.000
C14  25811469.589   485149774.339        2926.548          26.000           0.000           0.000           0.000           0.000
C21  21796435.839   487471916.851        -201.257          44.000           0.000           0.000           0.000           0.000
C34  23199418.076      -69895.158        2328.963          39.000           0.000           0.000           0.000           0.000
C22  24148620.057   487562601.016       -2480.259          37.000           0.000           0.000           0.000           0.000
C35  25365815.210       71413.915       -2382.651          34.000           0.000           0.000           0.000           0.000
> 20 07 06 08 24 31.000004  0 32
G02  21796083.284   489682954.785         863.040          42.000           0.000           0.000           0.000           0.000
G05  20586546.028   491920169.788        -103.884          43.000           0.000           0.000           0.000           0.000
G06  22512598.050   491948471.684        -795.174          39.000    22512596.553   377446097.524        -592.731          31.000
G09  24711954.966   492030139.604       -2806.969          28.000           0.000           0.000           0.000           0.000
G12  22913239.793   491973985.795       -1427.986          37.000           0.000           0.000           0.000           0.000
G13  22372341.048   489581682.289        3348.610          40.000           0.000           0.000           0.000           0.000
G15  24318494.454   489557271.076        3952.389          34.000           0.000           0.000           0.000           0.000
G17  23830771.400   492044357.642       -3153.300          35.000           0.000           0.000           0.000           0.000
G19  22540740.168   492034006.730       -2900.659          40.000           0.000           0.000           0.000           0.000
G25  23981221.942   491923896.102        -198.463          31.000           0.000           0.000           0.000           0.000
R18  20808162.208   763465264.803       -1045.909          39.000           0.000           0.000           0.000           0.000
G29  24494868.355   489570107.890        3634.660          37.000           0.000           0.000           0.000           0.000
R05  20173361.271   544496190.959        2441.302          40.000           0.000           0.000           0.000           0.000
R03  22955021.868   740039547.693       -3824.833          31.000           0.000           0.000           0.000           0.000
R04  19466662.910   717075961.784       -1502.348          40.000           0.000           0.000           0.000           0.000
C06  37078008.927   485209212.382        1396.307          37.000           0.000           0.000           0.000           0.000
C07  39098628.682   487517933.389       -1317.510          32.000           0.000           0.000           0.000           0.000
C08  37262160.342   485243366.568         561.453          36.000           0.000           0.000           0.000           0.000
C01  37461006.983   485260488.879         141.683          36.000           0.000           0.000           0.000           0.000
C09  38625064.822   485202977.465        1552.134          33.000           0.000           0.000           0.000           0.000
C03  36053011.616   485260980.679         128.963          39.000           0.000           0.000           0.000           0.000
C10  38352497.717   487523450.941       -1454.582          34.000           0.000           0.000           0.000           0.000
C02  37096420.081       -6457.548         166.797          35.000           0.000           0.000           0.000           0.000
C11  25118033.146   485144757.854        2982.943          34.000           0.000           0.000           0.000           0.000
C12  21700006.394   485216303.715        1217.542          42.000           0.000           0.000           0.000           0.000
C13  37345173.471   485248432.069         437.148          37.000           0.000           0.000           0.000           0.000
C16  37644086.941      -48500.991        1564.323          39.000           0.000           0.000           0.000           0.000
C14  25810985.424   485146847.870        2926.258          26.000           0.000           0.000           0.000           0.000
C21  21796551.560   487472118.171        -201.385          44.000           0.000           0.000           0.000           0.000
C34  23199047.233      -72223.228        2327.700          40.000           0.000           0.000           0.000           0.000
C22  24149174.071   487565081.362       -2481.089          37.000           0.000           0.000           0.000           0.000
C35  25366349.439       73796.677       -2382.948          34.000           0.000           0.000           0.000           0.000
> 20 07 06 08 24 32.000004  0 34
G02  21795918.999   489682091.700         862.805          41.000           0.000           0.000           0.000           0.000
G05  20586565.215   491920273.344        -103.575          42.000           0.000           0.000           0.000           0.000
G06  22512745.849   491949266.298        -793.756          38.000    22512747.947   377446690.354        -592.473          33.000
G09  24712487.700   492032945.561       -2805.923          28.000           0.000           0.000           0.000           0.000
G12  22913512.605   491975412.774       -1427.059          35.000           0.000           0.000           0.000           0.000
G13  22371703.089   489578333.503        3348.179          39.000           0.000           0.000           0.000           0.000
G15  24317741.674   489553318.691        3952.269          34.000           0.000           0.000           0.000           0.000
G17  23831370.985   492047510.857       -3153.308          34.000           0.000           0.000           0.000           0.000
G19  22541291.486   492036907.887       -2901.106          39.000           0.000           0.000           0.000           0.000
G25  23981258.518   491924094.505        -198.555          30.000           0.000           0.000           0.000           0.000
R18  20808357.973   769966098.377       -1045.581          40.000           0.000           0.000           0.000           0.000
G29  24494178.230   489566472.879        3636.278          36.000           0.000           0.000           0.000           0.000
R05  20172904.987   545615592.469        2441.041          41.000           0.000           0.000           0.000           0.000
R03  22955745.867   745964799.154       -3824.346          32.000           0.000           0.000           0.000           0.000
R04  19466945.014   722436877.453       -1503.329          40.000           0.000           0.000           0.000           0.000
C06  37077743.012   485207815.507        1397.618          37.000           0.000           0.000           0.000           0.000
C07  39098880.807   487519251.054       -1317.296          32.000           0.000           0.000           0.000           0.000
C08  37262053.617   485242805.402         560.602          37.000           0.000           0.000           0.000           0.000
C01  37460979.703   485260347.399         141.120          37.000           0.000           0.000           0.000           0.000
C09  38624765.930   485201424.893        1552.576          33.000           0.000           0.000           0.000           0.000
C03  36052987.334   485260851.209         129.598          40.000           0.000           0.000           0.000           0.000
C10  38352777.422   487524905.418       -1454.447          34.000           0.000           0.000           0.000           0.000
C02  37096387.702       -6624.377         166.714          35.000           0.000           0.000           0.000           0.000
C11  25117459.641   485141774.644        2983.348          34.000           0.000           0.000           0.000           0.000
C04  38466590.032       -3244.895         124.920          32.000           0.000           0.000           0.000           0.000
C12  21699772.260   485215086.552        1217.008          42.000           0.000           0.000           0.000           0.000
C05  39266742.396       -4131.050         159.667          32.000           0.000           0.000           0.000           0.000
C13  37345091.630   485247994.817         437.092          37.000           0.000           0.000           0.000           0.000
C16  37643785.048      -50065.859        1564.513          39.000           0.000           0.000           0.000           0.000
C14  25810423.313   485143920.153        2927.650          27.000           0.000           0.000           0.000           0.000
C21  21796589.933   487472319.501        -201.437          45.000           0.000           0.000           0.000           0.000
C34  23198600.241      -74551.062        2327.624          40.000           0.000           0.000           0.000           0.000
C22  24149648.346   487567561.079       -2479.541          38.000           0.000           0.000           0.000           0.000
C35  25366807.224       76179.843       -2383.408          35.000           0.000           0.000           0.000           0.000
> 20 07 06 08 24 33.000005  0 34
G02  21795829.963   489681228.713         862.977          41.000           0.000           0.000           0.000           0.000
G05  20586661.453   491920377.373        -104.451          42.000           0.000           0.000           0.000           0.000
G06  22512972.496   491950060.885        -795.226          37.000    22512976.693   377447283.544        -593.870          33.000
G09  24713098.078   492035751.358       -2805.840          27.000           0.000           0.000           0.000           0.000
G12  22913859.468   491976839.254       -1426.170          35.000           0.000           0.000           0.000           0.000
G13  22371142.780   489574985.359        3348.498          39.000           0.000           0.000           0.000           0.000
G15  24317066.547   489549366.193        3952.405          34.000           0.000           0.000           0.000           0.000
G17  23832047.320   492050664.146       -3153.511          34.000           0.000           0.000           0.000           0.000
G19  22541920.754   492039809.358       -2901.506          39.000           0.000           0.000           0.000           0.000
G25  23981372.145   491924293.135        -198.733          29.000           0.000           0.000           0.000           0.000
R18  20808633.783   776466931.742       -1046.322          40.000           0.000           0.000           0.000           0.000
G29  24493564.261   489562836.450        3636.928          36.000           0.000           0.000           0.000           0.000
R05  20172525.452   546734994.441        2440.465          41.000           0.000           0.000           0.000           0.000
R03  22956538.220   751890050.027       -3824.127          32.000           0.000           0.000           0.000           0.000
R04  19467304.467   727797794.184       -1503.926          40.000           0.000           0.000           0.000           0.000
C06  37077549.049   485206418.094        1396.286          37.000           0.000           0.000           0.000           0.000
C07  39099209.980   487520568.178       -1317.394          33.000           0.000           0.000           0.000           0.000
C08  37262023.040   485242244.055         562.225          36.000           0.000           0.000           0.000           0.000
C01  37461027.971   485260205.790         141.551          37.000           0.000           0.000           0.000           0.000
C09  38624542.886   485199872.532        1551.746          33.000           0.000           0.000           0.000           0.000
C03  36053038.001   485260721.522         129.349          39.000           0.000           0.000           0.000           0.000
C10  38353133.280   487526359.819       -1454.373          34.000           0.000           0.000           0.000           0.000
C02  37096432.374       -6791.165         166.752          34.000           0.000           0.000           0.000           0.000
C11  25116962.589   485138791.281        2983.215          34.000           0.000           0.000           0.000           0.000
C04  38466642.501       -3369.985         125.027          32.000           0.000           0.000           0.000           0.000
C12  21699615.169   485213869.373        1216.876          42.000           0.000           0.000           0.000           0.000
C05  39266787.972       -4290.896         159.779          32.000           0.000           0.000           0.000           0.000
C13  37345083.838   485247558.051         436.598          38.000           0.000           0.000           0.000           0.000
C16  37643561.105      -51630.498        1564.523          40.000           0.000           0.000           0.000           0.000
C14  25809938.551   485140992.270        2928.030          28.000           0.000           0.000           0.000           0.000
C21  21796705.057   487472521.472        -202.403          45.000           0.000           0.000           0.000           0.000
C34  23198228.504      -76878.696        2327.279          40.000           0.000           0.000           0.000           0.000
C22  24150201.165   487570040.720       -2479.572          37.000           0.000           0.000           0.000           0.000
C35  25367342.056       78563.596       -2384.268          34.000           0.000           0.000           0.000           0.000
> 20 07 06 08 24 34.000005  0 34
G02  21795665.678   489680365.894         862.760          41.000           0.000           0.000           0.000           0.000
G05  20586680.338   491920481.686        -104.188          42.000           0.000           0.000           0.000           0.000
G06  22513124.789   491950855.899        -795.337          38.000    22513128.689   377447877.882        -594.347          33.000
G09  24713632.609   492038557.151       -2805.871          27.000           0.000           0.000           0.000           0.000
G12  22914129.279   491978265.572       -1426.760          35.000           0.000           0.000           0.000           0.000
G13  22370507.523   489571637.005        3347.505          39.000           0.000           0.000           0.000           0.000
G15  24316314.368   489545413.712        3952.597          35.000           0.000           0.000           0.000           0.000
G17  23832647.202   492053817.711       -3153.745          35.000           0.000           0.000           0.000           0.000
G19  22542473.272   492042710.557       -2900.593          40.000           0.000           0.000           0.000           0.000
G25  23981408.716   491924491.908        -198.874          28.000           0.000           0.000           0.000           0.000
R18  20808836.443   782967765.909       -1046.824          40.000           0.000           0.000           0.000           0.000
G29  24492872.639   489559200.182        3635.807          36.000           0.000           0.000           0.000           0.000
R05  20172066.470   547854397.052        2439.883          42.000           0.000           0.000           0.000           0.000
R03  22957252.926   757815300.296       -3823.599          32.000           0.000           0.000           0.000           0.000
R04  19467585.372   733158711.609       -1504.549          40.000           0.000           0.000           0.000           0.000
C06  37077280.734   485205021.295        1396.683          37.000           0.000           0.000           0.000           0.000
C07  39099462.109   487521885.360       -1317.015          33.000           0.000           0.000           0.000           0.000
C08  37261914.216   485241682.574         561.635          37.000           0.000           0.000           0.000           0.000
C01  37461000.391   485260064.504         141.327          37.000           0.000           0.000           0.000           0.000
C09  38624243.994   485198320.997        1551.459          33.000           0.000           0.000           0.000           0.000
C03  36053012.519   485260592.362         129.074          40.000           0.000           0.000           0.000           0.000
C10  38353412.688   487527814.272       -1454.180          34.000           0.000           0.000           0.000           0.000
C02  37096400.296       -6958.009         166.831          35.000           0.000           0.000           0.000           0.000
C11  25116388.786   485135808.340        2982.679          34.000           0.000           0.000           0.000           0.000
C04  38466618.816       -3495.077         125.027          32.000           0.000           0.000           0.000           0.000
C12  21699381.332   485212652.698        1216.574          42.000           0.000           0.000           0.000           0.000
C05  39266756.491       -4450.871         159.998          33.000           0.000           0.000           0.000           0.000
C13  37344999.898   485247120.768         438.323          38.000           0.000           0.000           0.000           0.000
C16  37643262.213      -53195.122        1564.901          40.000           0.000           0.000           0.000           0.000
C14  25809378.839   485138065.794        2925.583          27.000           0.000           0.000           0.000           0.000
C21  21796743.731   487472723.924        -202.255          45.000           0.000           0.000           0.000           0.000
C34  23197781.512      -79206.407        2327.811          40.000           0.000           0.000           0.000           0.000
C22  24150676.334   487572520.716       -2480.206          38.000           0.000           0.000           0.000           0.000
C35  25367800.137       80947.761       -2384.403          35.000           0.000           0.000           0.000           0.000
> 20 07 06 08 24 35.000005  0 34
G02  21795502.889   489679502.721         862.987          41.000           0.000           0.000           0.000           0.000
G05  20586700.725   491920585.941        -104.261          42.000           0.000           0.000           0.000           0.000
G06  22513277.382   491951650.694        -795.272          38.000    22513279.782   377448472.004        -593.589          34.000
G09  24714167.139   492041363.075       -2805.969          29.000           0.000           0.000           0.000           0.000
G12  22914399.993   491979692.675       -1427.509          35.000           0.000           0.000           0.000           0.000
G13  22369869.263   489568288.948        3347.835          40.000           0.000           0.000           0.000           0.000
G15  24315561.889   489541461.014        3952.739          35.000           0.000           0.000           0.000           0.000
G17  23833246.787   492056971.264       -3153.628          34.000           0.000           0.000           0.000           0.000
G19  22543024.890   492045612.224       -2902.467          39.000           0.000           0.000           0.000           0.000
G25  23981446.491   491924690.920        -199.147          28.000           0.000           0.000           0.000           0.000
R18  20809032.208   789468600.489       -1047.484          40.000           0.000           0.000           0.000           0.000
G29  24492179.517   489555564.467        3636.791          35.000           0.000           0.000           0.000           0.000
R05  20171610.785   548973800.097        2439.324          42.000           0.000           0.000           0.000           0.000
R03  22957967.929   763740550.736       -3823.240          32.000           0.000           0.000           0.000           0.000
R04  19467869.876   738519629.320       -1504.413          40.000           0.000           0.000           0.000           0.000
C06  37077010.919   485203624.574        1396.836          37.000           0.000           0.000           0.000           0.000
C07  39099714.531   487523201.880       -1316.222          33.000           0.000           0.000           0.000           0.000
C08  37261805.989   485241120.433         562.519          38.000           0.000           0.000           0.000           0.000
C01  37460971.912   485259922.383         142.253          37.000           0.000           0.000           0.000           0.000
C09  38623945.700   485196769.119        1551.766          34.000           0.000           0.000           0.000           0.000
C03  36052987.338   485260462.979         129.851          40.000           0.000           0.000           0.000           0.000
C10  38353692.393   487529268.256       -1453.837          35.000           0.000           0.000           0.000           0.000
C02  37096368.219       -7124.901         166.831          35.000           0.000           0.000           0.000           0.000
C11  25115815.285   485132824.902        2983.556          34.000           0.000           0.000           0.000           0.000
C04  38466594.534       -3620.226         125.148          32.000           0.000           0.000           0.000           0.000
C12  21699148.694   485211436.121        1216.577          43.000           0.000           0.000           0.000           0.000
C05  39266725.613       -4611.039         160.338          33.000           0.000           0.000           0.000           0.000
C13  37344916.255   485246682.369         437.908          38.000           0.000           0.000           0.000           0.000
C16  37642962.122      -54759.976        1564.121          40.000           0.000           0.000           0.000           0.000
C14  25808816.729   485135139.939        2925.748          28.000           0.000           0.000           0.000           0.000
C21  21796783.003   487472926.266        -202.291          46.000           0.000           0.000           0.000           0.000
C34  23197334.822      -81534.135        2327.808          40.000           0.000           0.000           0.000           0.000
C22  24151151.207   487575000.472       -2479.014          38.000           0.000           0.000           0.000           0.000
C35  25368259.121       83332.204       -2384.488          35.000           0.000           0.000           0.000           0.000
> 20 07 06 08 24 36.000005  0 34
G02  21795415.647   489678639.818         863.340          41.000           0.000           0.000           0.000           0.000
G05  20586797.259   491920690.287        -104.256          42.000           0.000           0.000           0.000           0.000
G06  22513504.026   491952445.416        -794.181          38.000    22513507.921   377449065.913        -594.170          34.000
G09  24714778.115   492044169.086       -2806.036          28.000           0.000           0.000           0.000           0.000
G12  22914746.850   491981120.339       -1427.894          35.000           0.000           0.000           0.000           0.000
G13  22369305.953   489564941.445        3347.701          39.000           0.000           0.000           0.000           0.000
G15  24314887.656   489537508.173        3952.803          35.000           0.000           0.000           0.000           0.000
G17  23833923.118   492060124.850       -3153.674          33.000           0.000           0.000           0.000           0.000
G19  22543653.853   492048514.972       -2902.396          39.000           0.000           0.000           0.000           0.000
G25  23981561.310   491924890.071        -199.473          29.000           0.000           0.000           0.000           0.000
R18  20809302.019   795969435.525       -1047.333          40.000           0.000           0.000           0.000           0.000
G29  24491563.445   489551927.927        3636.480          36.000           0.000           0.000           0.000           0.000
R05  20171226.451   550093203.950        2438.585          41.000           0.000           0.000           0.000           0.000
R03  22958759.382   769665801.158       -3823.806          32.000           0.000           0.000           0.000           0.000
R04  19468227.527   743880547.996       -1505.519          40.000           0.000           0.000           0.000           0.000
C06  37076820.851   485202228.049        1396.088          37.000           0.000           0.000           0.000           0.000
C07  39100044.004   487524518.625       -1316.095          33.000           0.000           0.000           0.000           0.000
C08  37261773.611   485240558.055         562.519          37.000           0.000           0.000           0.000           0.000
C01  37461021.676   485259780.143         141.713          38.000           0.000           0.000           0.000           0.000
C09  38623723.554   485195217.099        1552.147          33.000           0.000           0.000           0.000           0.000
C03  36053039.803   485260332.947         130.114          40.000           0.000           0.000           0.000           0.000
C10  38354049.146   487530721.781       -1453.384          35.000           0.000           0.000           0.000           0.000
C02  37096412.590       -7291.840         167.046          35.000           0.000           0.000           0.000           0.000
C11  25115319.127   485129841.146        2983.494          35.000           0.000           0.000           0.000           0.000
C04  38466646.994       -3745.609         125.339          32.000           0.000           0.000           0.000           0.000
C12  21698991.899   485210219.704        1216.463          42.000           0.000           0.000           0.000           0.000
C05  39266770.582       -4771.578         160.654          32.000           0.000           0.000           0.000           0.000
C13  37344907.560   485246243.766         439.085          38.000           0.000           0.000           0.000           0.000
C16  37642737.873      -56324.363        1564.869          40.000           0.000           0.000           0.000           0.000
C14  25808330.465   485132213.718        2926.170          28.000           0.000           0.000           0.000           0.000
C21  21796899.020   487473129.000        -203.241          45.000           0.000           0.000           0.000           0.000
C34  23196966.077      -83861.580        2327.778          40.000           0.000           0.000           0.000           0.000
C22  24151703.725   487577480.037       -2480.278          38.000           0.000           0.000           0.000           0.000
C35  25368794.551       85716.441       -2383.904          35.000           0.000           0.000           0.000           0.000
> 20 07 06 08 24 37.000005  0 34
G02  21795249.264   489677776.875         862.732          41.000           0.000           0.000           0.000           0.000
G05  20586819.744   491920795.097        -105.211          42.000           0.000           0.000           0.000           0.000
G06  22513658.717   491953239.896        -794.751          38.000    22513659.620   377449659.741        -593.892          33.000
G09  24715314.146   492046975.167       -2806.288          28.000    24715308.449   377519647.873       -2096.684          26.000
G12  22915016.666   491982548.351       -1428.187          36.000           0.000           0.000           0.000           0.000
G13  22368670.394   489561593.142        3348.156          39.000           0.000           0.000           0.000           0.000
G15  24314136.376   489533555.142        3953.062          35.000           0.000           0.000           0.000           0.000
G17  23834522.704   492063278.591       -3153.950          33.000           0.000           0.000           0.000           0.000
G19  22544207.570   492051416.643       -2901.620          39.000           0.000           0.000           0.000           0.000
G25  23981598.487   491925089.543        -199.895          29.000           0.000           0.000           0.000           0.000
R18  20809496.286   802470270.591       -1047.781          39.000           0.000           0.000           0.000           0.000
G29  24490871.823   489548291.707        3634.800          36.000           0.000           0.000           0.000           0.000
R05  20170764.470   551212608.152        2437.590          41.000           0.000           0.000           0.000           0.000
R03  22959473.787   775591051.640       -3822.941          32.000           0.000           0.000           0.000           0.000
R04  19468504.536   749241466.507       -1505.385          40.000           0.000           0.000           0.000           0.000
C06  37076554.037   485200830.811        1396.758          36.000           0.000           0.000           0.000           0.000
C07  39100297.329   487525834.311       -1315.768          32.000           0.000           0.000           0.000           0.000
C08  37261665.986   485239995.259         562.809          37.000           0.000           0.000           0.000           0.000
C01  37460995.295   485259638.236         141.949          37.000           0.000           0.000           0.000           0.000
C09  38623424.658   485193664.958        1552.138          32.000           0.000           0.000           0.000           0.000
C03  36053014.020   485260202.694         130.175          40.000           0.000           0.000           0.000           0.000
C10  38354328.550   487532175.288       -1453.410          34.000           0.000           0.000           0.000           0.000
C02  37096382.009       -7458.760         166.669          34.000           0.000           0.000           0.000           0.000
C11  25114745.922   485126857.610        2983.456          34.000           0.000           0.000           0.000           0.000
C04  38466623.013       -3871.099         125.436          32.000           0.000           0.000           0.000           0.000
C12  21698758.363   485209003.455        1215.885          42.000           0.000           0.000           0.000           0.000
C05  39266738.204       -4932.626         161.162          31.000           0.000           0.000           0.000           0.000
C13  37344822.120   485245804.980         438.722          38.000           0.000           0.000           0.000           0.000
C16  37642434.484      -57889.077        1564.001          40.000           0.000           0.000           0.000           0.000
C14  25807767.155   485129286.850        2927.308          27.000           0.000           0.000           0.000           0.000
C21  21796937.694   487473332.080        -202.795          45.000           0.000           0.000           0.000           0.000
C34  23196516.384      -86189.747        2327.761          39.000           0.000           0.000           0.000           0.000
C22  24152180.696   487579960.570       -2480.578          38.000           0.000           0.000           0.000           0.000
C35  25369252.632       88100.202       -2383.937          34.000           0.000           0.000           0.000           0.000
> 20 07 06 08 24 38.000005  0 34
G02  21795165.023   489676913.713         863.422          41.000           0.000           0.000           0.000           0.000
G05  20586915.676   491920900.177        -105.138          42.000           0.000           0.000           0.000           0.000
G06  22513882.961   491954034.746        -795.255          38.000    22513891.058   377450253.180        -593.320          24.000
G09  24715924.223   492049781.282       -2806.297          27.000    24715921.523   377521745.794       -2099.946          16.000
G12  22915363.223   491983976.565       -1428.423          36.000           0.000           0.000           0.000           0.000
G13  22368112.476   489558245.063        3347.345          39.000           0.000           0.000           0.000           0.000
G15  24313462.139   489529601.996        3953.115          34.000           0.000           0.000           0.000           0.000
G17  23835199.035   492066432.451       -3154.110          34.000           0.000           0.000           0.000           0.000
G19  22544837.733   492054318.999       -2902.876          39.000           0.000           0.000           0.000           0.000
G25  23981714.505   491925289.471        -200.207          30.000           0.000           0.000           0.000           0.000
R18  20809768.496   808971105.639       -1048.453          36.000           0.000           0.000           0.000           0.000
G29  24490256.049   489544656.240        3635.976          36.000           0.000           0.000           0.000           0.000
R05  20170382.233   552332013.157        2437.258          38.000           0.000           0.000           0.000           0.000
R03  22960266.738   781516301.335       -3823.273          28.000           0.000           0.000           0.000           0.000
R04  19468865.184   754602385.857       -1506.836          36.000           0.000           0.000           0.000           0.000
C06  37076361.867   485199434.077        1395.185          35.000           0.000           0.000           0.000           0.000
C07  39100627.099   487527150.163       -1316.192          31.000           0.000           0.000           0.000           0.000
C08  37261635.108   485239432.209         563.020          35.000           0.000           0.000           0.000           0.000
C01  37461044.758   485259496.174         141.656          35.000           0.000           0.000           0.000           0.000
C09  38623203.411   485192112.367        1552.475          32.000           0.000           0.000           0.000           0.000
C03  36053065.284   485260072.356         130.455          38.000           0.000           0.000           0.000           0.000
C10  38354684.403   487533628.618       -1453.850          33.000           0.000           0.000           0.000           0.000
C02  37096426.380       -7625.798         167.261          33.000           0.000           0.000           0.000           0.000
C11  25114249.468   485123874.023        2983.596          32.000           0.000           0.000           0.000           0.000
C04  38466675.774       -3996.638         125.707          31.000           0.000           0.000           0.000           0.000
C12  21698599.771   485207787.733        1215.557          41.000           0.000           0.000           0.000           0.000
C05  39266782.571       -5094.180         161.631          30.000           0.000           0.000           0.000           0.000
C13  37344812.522   485245366.057         439.021          36.000           0.000           0.000           0.000           0.000
C16  37642211.139      -59453.588        1564.977          38.000           0.000           0.000           0.000           0.000
C14  25807279.692   485126359.131        2928.607          25.000           0.000           0.000           0.000           0.000
C21  21797052.216   487473535.079        -203.931          44.000           0.000           0.000           0.000           0.000
C34  23196145.245      -88517.534        2327.151          39.000           0.000           0.000           0.000           0.000
C22  24152733.510   487582441.046       -2481.650          36.000           0.000           0.000           0.000           0.000
C35  25369787.761       90484.183       -2383.794          34.000           0.000           0.000           0.000           0.000
> 20 07 06 08 24 39.000005  0 34
G02  21795003.735   489676050.953         862.108          39.000           0.000           0.000           0.000           0.000
G05  20586936.359   491921005.974        -106.742          40.000           0.000           0.000           0.000           0.000
G06  22514032.859   491954830.365        -795.711          36.000    22514045.449   377450847.135        -594.476          27.000
G09  24716459.653   492052587.637       -2806.652          27.000    24716459.352   377523843.833       -2097.418          18.000
G12  22915635.734   491985405.111       -1429.064          35.000           0.000           0.000           0.000           0.000
G13  22367475.120   489554897.983        3346.193          38.000           0.000           0.000           0.000           0.000
G15  24312710.859   489525649.020        3952.803          33.000           0.000           0.000           0.000           0.000
G17  23835799.519   492069586.627       -3154.648          33.000           0.000           0.000           0.000           0.000
G19  22545391.149   492057222.150       -2903.202          37.000           0.000           0.000           0.000           0.000
G25  23981752.878   491925489.889        -200.861          29.000           0.000           0.000           0.000           0.000
R18  20809971.455   815471941.915       -1049.993          36.000           0.000           0.000           0.000           0.000
G29  24489565.326   489541021.011        3634.892          36.000           0.000           0.000           0.000           0.000
R05  20169921.753   553451419.627        2435.582          38.000           0.000           0.000           0.000           0.000
R03  22960983.541   787441552.206       -3824.543          28.000           0.000           0.000           0.000           0.000
R04  19469158.382   759963306.633       -1507.911          37.000           0.000           0.000           0.000           0.000
C06  37076095.053   485198037.490        1395.329          35.000           0.000           0.000           0.000           0.000
C07  39100880.122   487528466.505       -1316.754          31.000           0.000           0.000           0.000           0.000
C08  37261526.882   485238869.300         562.719          35.000           0.000           0.000           0.000           0.000
C01  37461018.076   485259353.994         142.632          35.000           0.000           0.000           0.000           0.000
C09  38622905.117   485190559.802        1552.284          31.000           0.000           0.000           0.000           0.000
C03  36053041.897   485259941.920         131.040          38.000           0.000           0.000           0.000           0.000
C10  38354963.210   487535082.404       -1454.227          33.000           0.000           0.000           0.000           0.000
C02  37096394.900       -7793.290         167.577          33.000           0.000           0.000           0.000           0.000
C11  25113676.865   485120890.583        2982.418          32.000           0.000           0.000           0.000           0.000
C04  38466651.492       -4122.611         126.065          29.000           0.000           0.000           0.000           0.000
C12  21698368.032   485206572.624        1213.895          40.000           0.000           0.000           0.000           0.000
C05  39266750.196       -5256.008         161.984          30.000           0.000           0.000           0.000           0.000
C13  37344731.278   485244927.260         437.413          36.000           0.000           0.000           0.000           0.000
C16  37641913.146      -61018.338        1564.027          38.000           0.000           0.000           0.000           0.000
C14  25806717.280   485123430.833        2927.766          24.000           0.000           0.000           0.000           0.000
C21  21797093.887   487473739.271        -205.048          43.000           0.000           0.000           0.000           0.000
C34  23195702.149      -90844.433        2326.232          38.000           0.000           0.000           0.000           0.000
C22  24153213.779   487584921.671       -2481.250          36.000           0.000           0.000           0.000           0.000
C35  25370246.143       92867.831       -2384.179          33.000           0.000           0.000           0.000           0.000
> 20 07 06 08 24 40.000005  0 34
G02  21794835.549   489675186.543         865.977          40.000           0.000           0.000           0.000           0.000
G05  20586955.546   491921110.829        -102.649          41.000           0.000           0.000           0.000           0.000
G06  22514184.554   491955625.565        -794.465          36.000    22514195.944   377451440.847        -591.657          32.000
G09  24716993.281   492055394.031       -2805.508          26.000    24716992.980   377525940.191       -2093.594          25.000
G12  22915908.245   491986833.875       -1427.894          35.000           0.000           0.000           0.000           0.000
G13  22366839.561   489551549.529        3350.161          39.000           0.000           0.000           0.000           0.000
G15  24311958.981   489521695.941        3953.630          33.000           0.000           0.000           0.000           0.000
G17  23836400.002   492072740.977       -3153.327          33.000           0.000           0.000           0.000           0.000
G19  22545942.170   492060123.966       -2899.719          38.000           0.000           0.000           0.000           0.000
G25  23981788.555   491925690.592        -200.149          29.000           0.000           0.000           0.000           0.000
R18  20810165.122   821972778.006       -1045.969          36.000           0.000           0.000           0.000           0.000
G29  24488874.903   489537385.487        3637.046          33.000           0.000           0.000           0.000           0.000
R05  20169468.167   554570824.864        2438.960          37.000           0.000           0.000           0.000           0.000
R03  22961698.546   793366802.866       -3822.405          28.000           0.000           0.000           0.000           0.000
R04  19469436.888   765324226.328       -1504.301          37.000           0.000           0.000           0.000           0.000
C06  37075826.738   485196641.156        1397.251          35.000           0.000           0.000           0.000           0.000
C07  39101133.151   487529782.814       -1315.660          31.000           0.000           0.000           0.000           0.000
C08  37261418.957   485238306.659         564.565          35.000           0.000           0.000           0.000           0.000
C01  37460989.598   485259210.068         145.000          36.000           0.000           0.000           0.000           0.000
C09  38622606.828   485189006.904        1553.944          32.000           0.000           0.000           0.000           0.000
C03  36053017.615   485259810.379         132.926          38.000           0.000           0.000           0.000           0.000
C10  38355242.016   487536536.282       -1452.692          33.000           0.000           0.000           0.000           0.000
C02  37096362.521       -7961.294         168.196          33.000           0.000           0.000           0.000           0.000
C11  25113103.962   485117908.064        2983.328          33.000           0.000           0.000           0.000           0.000
C04  38466627.507       -4248.874         126.502          30.000           0.000           0.000           0.000           0.000
C12  21698136.293   485205356.827        1217.815          40.000           0.000           0.000           0.000           0.000
C05  39266718.415       -5418.142         162.198          30.000           0.000           0.000           0.000           0.000
C13  37344647.338   485244489.273         438.721          36.000           0.000           0.000           0.000           0.000
C16  37641612.753      -62584.450        1567.880          37.000           0.000           0.000           0.000           0.000
C14  25806153.673   485120503.583        2927.559          25.000           0.000           0.000           0.000           0.000
C21  21797132.260   487473942.404        -201.305          43.000           0.000           0.000           0.000           0.000
C34  23195255.458      -93172.400        2329.583          38.000           0.000           0.000           0.000           0.000
C22  24153689.847   487587402.489       -2480.045          36.000           0.000           0.000           0.000           0.000
C35  25370704.826       95251.887       -2383.905          33.000           0.000           0.000           0.000           0.000
> 20 07 06 08 24 41.000005  0 34
G02  21794748.010   489674321.781         862.802          41.000           0.000           0.000           0.000           0.000
G05  20587050.580   491921214.797        -106.731          42.000           0.000           0.000           0.000           0.000
G06  22514409.997   491956419.117        -793.720          37.000    22514421.990   377452033.029        -592.649          32.000
G09  24717604.256   492058199.463       -2805.548          26.000    24717602.158   377528034.016       -2094.083          24.000
G12  22916257.503   491988261.498       -1427.640          36.000           0.000           0.000           0.000           0.000
G13  22366281.045   489548200.695        3346.879          40.000           0.000           0.000           0.000           0.000
G15  24311284.448   489517741.438        3954.575          34.000           0.000           0.000           0.000           0.000
G17  23837077.533   492075894.077       -3153.150          34.000           0.000           0.000           0.000           0.000
G19  22546571.730   492063025.304       -2904.136          39.000           0.000           0.000           0.000           0.000
G25  23981904.573   491925890.470        -199.970          31.000           0.000           0.000           0.000           0.000
R18  20810437.036   828473612.582       -1049.808          34.000           0.000           0.000           0.000           0.000
G29  24488260.028   489533748.102        3637.528          34.000           0.000           0.000           0.000           0.000
R05  20169087.733   555690229.075        2437.822          36.000           0.000           0.000           0.000           0.000
R03  22962489.700   799292052.867       -3824.308          28.000           0.000           0.000           0.000           0.000
R04  19469795.141   770685145.456       -1506.562          36.000           0.000           0.000           0.000           0.000
C06  37075635.471   485195242.894        1398.036          34.000           0.000           0.000           0.000           0.000
C07  39101463.221   487531098.300       -1315.106          30.000           0.000           0.000           0.000           0.000
C08  37261388.079   485237741.894         564.946          35.000           0.000           0.000           0.000           0.000
C01  37461038.764   485259065.164         144.744          35.000           0.000           0.000           0.000           0.000
C09  38622385.576   485187452.548        1554.443          32.000           0.000           0.000           0.000           0.000
C03  36053070.676   485259677.451         132.519          37.000           0.000           0.000           0.000           0.000
C10  38355598.171   487537988.636       -1452.272          33.000           0.000           0.000           0.000           0.000
C02  37096407.490       -8129.812         168.786          33.000           0.000           0.000           0.000           0.000
C11  25112608.402   485114924.193        2984.385          32.000           0.000           0.000           0.000           0.000
C04  38466680.568       -4375.737         126.958          31.000           0.000           0.000           0.000           0.000
C12  21697980.699   485204140.088        1214.858          40.000           0.000           0.000           0.000           0.000
C05  39266764.584       -5580.483         162.369          30.000           0.000           0.000           0.000           0.000
C13  37344640.144   485244049.589         440.299          35.000           0.000           0.000           0.000           0.000
C16  37641389.107      -64151.503        1565.269          37.000           0.000           0.000           0.000           0.000
C14  25805668.605   485117575.140        2928.550          25.000           0.000           0.000           0.000           0.000
C21  21797250.075   487474145.044        -204.748          43.000           0.000           0.000           0.000           0.000
C34  23194885.513      -95501.145        2326.535          38.000           0.000           0.000           0.000           0.000
C22  24154241.466   487589881.789       -2478.973          35.000           0.000           0.000           0.000           0.000
C35  25371239.357       97635.137       -2383.166          35.000           0.000           0.000           0.000           0.000
> 20 07 06 08 24 42.000005  0 34
G02  21794584.921   489673459.401         863.647          40.000           0.000           0.000           0.000           0.000
G05  20587072.467   491921322.145        -105.895          41.000           0.000           0.000           0.000           0.000
G06  22514560.191   491957213.517        -794.918          36.000    22514571.285   377452625.983        -592.868          33.000
G09  24718137.587   492061006.538       -2807.865          29.000    24718135.192   377530129.192       -2095.517          26.000
G12  22916530.913   491989690.261       -1429.393          34.000           0.000           0.000           0.000           0.000
G13  22365643.087   489544854.255        3347.746          39.000           0.000           0.000           0.000           0.000
G15  24310531.667   489513787.638        3953.243          33.000           0.000           0.000           0.000           0.000
G17  23837678.017   492079048.315       -3154.793          33.000           0.000           0.000           0.000           0.000
G19  22547124.248   492065929.634       -2903.166          38.000           0.000           0.000           0.000           0.000
G25  23981941.148   491926091.743        -201.946          31.000           0.000           0.000           0.000           0.000
R18  20810629.501   834974450.419       -1050.841          33.000           0.000           0.000           0.000           0.000
G29  24487568.707   489530111.347        3636.339          36.000           0.000           0.000           0.000           0.000
R05  20168635.344   556809635.905        2434.912          34.000           0.000           0.000           0.000           0.000
R03  22963207.403   805217304.035       -3824.483          27.000           0.000           0.000           0.000           0.000
R04  19470074.848   776046066.865       -1509.086          34.000           0.000           0.000           0.000           0.000
C06  37075367.457   485193845.359        1397.227          36.000           0.000           0.000           0.000           0.000
C07  39101715.643   487532413.992       -1315.628          32.000           0.000           0.000           0.000           0.000
C08  37261280.153   485237177.593         564.106          36.000           0.000           0.000           0.000           0.000
C01  37461011.480   485258920.918         143.891          37.000           0.000           0.000           0.000           0.000
C09  38622088.185   485185898.823        1553.045          33.000           0.000           0.000           0.000           0.000
C03  36053047.293   485259547.123         129.030          39.000           0.000           0.000           0.000           0.000
C10  38355877.579   487539441.963       -1453.702          33.000           0.000           0.000           0.000           0.000
C02  37096375.412       -8298.609         168.706          33.000           0.000           0.000           0.000           0.000
C11  25112036.697   485111940.361        2983.414          33.000           0.000           0.000           0.000           0.000
C04  38466657.185       -4502.914         127.292          31.000           0.000           0.000           0.000           0.000
C12  21697747.162   485202926.857        1213.860          41.000           0.000           0.000           0.000           0.000
C05  39266733.706       -5742.966         162.392          31.000           0.000           0.000           0.000           0.000
C13  37344556.200   485243609.865         439.871          37.000           0.000           0.000           0.000           0.000
C16  37641089.015      -65714.796        1563.695          39.000           0.000           0.000           0.000           0.000
C14  25805104.696   485114646.992        2927.481          26.000           0.000           0.000           0.000           0.000
C21  21797290.250   487474350.935        -204.887          44.000           0.000           0.000           0.000           0.000
C34  23194439.124      -97827.028        2327.547          39.000           0.000           0.000           0.000           0.000
C22  24154716.635   487592361.449       -2480.001          36.000           0.000           0.000           0.000           0.000
C35  25371697.137      100018.897       -2384.155          33.000           0.000           0.000           0.000           0.000
> 20 07 06 08 24 43.000005  0 31
G02  21794419.135   489672596.435         862.561          39.000           0.000           0.000           0.000           0.000
