     3.03           OBSERVATION DATA    M: Mixed            RINEX VERSION / TYPE
ANDROID_RINEX       UNKN                20200706 161518 UTC PGM / RUN BY / DATE
Generated by Hi-target android_rinex program                COMMENT
Four doubts or inquiries, reach us at Nander@hitargetgroup.com.cnCOMMENT
UNKN                                                        MARKER NAME
UNKN                                                        MARKER TYPE
UNKN                UNKN                                    OBSERVER / AGENCY
UNKN                UNKN                AndroidOS >7.0      REC # / TYPE / VERS
UNKN                internal                                ANT # / TYPE
        0.0000        0.0000        0.0000                  APPROX POSITION XYZ
        0.0000        0.0000        0.0000                  ANTENNA: DELTA H/E/N
G    8 C1C L1C D1C S1C C5Q L5Q D5Q S5Q                      SYS / # / OBS TYPES
R    4 C1C L1C D1C S1C                                      SYS / # / OBS TYPES
E   12 C1C L1C D1C S1C C5I L5I D5I S5I C7I L7I D7I S7I      SYS / # / OBS TYPES
C    4 C2I L2I D2I S2I                                      SYS / # / OBS TYPES
J    8 C1C L1C D1C S1C C5Q L5Q D5Q S5Q                      SYS / # / OBS TYPES"
  2017    07    17    11    46    44.000338                 TIME OF FIRST OBS
 24 R01  1 R02 -4 R03  5 R04  6 R05  1 R06 -4 R07  5 R08  6 GLONASS SLOT / FRQ #
    R09 -2 R10 -5 R11  0 R12 -1 R13 -2 R14 -7 R15  0 R16 -1 GLONASS SLOT / FRQ #
    R17  4 R18 -3 R19  3 R20  2 R21  4 R22 -3 R23  3 R24  2 GLONASS SLOT / FRQ #
G L1C                                                       SYS / PHASE SHIFT
G L5Q -0.25000                                              SYS / PHASE SHIFT
R L1C                                                       SYS / PHASE SHIFT
E L1B                                                       SYS / PHASE SHIFT
E L1C +0.50000                                              SYS / PHASE SHIFT
E L5Q -0.25000                                              SYS / PHASE SHIFT
C L2I                                                       SYS / PHASE SHIFT
J L1C                                                       SYS / PHASE SHIFT
J L5Q -0.25000                                              SYS / PHASE SHIFT
 C1C    0.000 C1P    0.000 C2C    0.000 C2P    0.000        GLONASS COD/PHS/BIS
                                                            END OF HEADER
> 17 07 17 11 46 44.000338  0  9
G05  24903400.633       34969.225       -1487.736          33.922           0.000           0.000           0.000           0.000
G16  22055793.792      -59093.664        2494.583          30.472           0.000           0.000           0.000           0.000
G18  24084793.945      -61379.113        2593.500          31.965           0.000           0.000           0.000           0.000
G20  23049362.358      -15148.961         632.073          34.835           0.000           0.000           0.000           0.000
G21  20971749.063       -2150.930          83.372          36.014           0.000           0.000           0.000           0.000
G25  24621585.533       80721.502       -3415.577          22.369           0.000           0.000           0.000           0.000
G26  20729106.939      -28692.721        1205.919          35.988           0.000           0.000           0.000           0.000
G29  22451295.592       63768.768       -2699.524          37.710           0.000           0.000           0.000           0.000
G31  22078034.496       65157.883       -2761.987          30.336           0.000           0.000           0.000           0.000
> 17 07 17 11 46 45.000338  0  9
G05  24903674.048       36457.001       -1487.881          34.147           0.000           0.000           0.000           0.000
G16  22055299.135      -61588.433        2494.292          29.490           0.000           0.000           0.000           0.000
G18  24084313.379      -63972.305        2593.548          31.563           0.000           0.000           0.000           0.000
G20  23049231.050      -15780.761         631.583          34.859           0.000           0.000           0.000           0.000
G21  20971730.775       -2233.738          82.402          35.139           0.000           0.000           0.000           0.000
G25  24622198.009       84138.503       -3416.904          23.527           0.000           0.000           0.000           0.000
G26  20728889.588      -29899.208        1206.280          34.383           0.000           0.000           0.000           0.000
G29  22451812.733       66468.122       -2699.394          37.192           0.000           0.000           0.000           0.000
G31  22078537.848       67919.687       -2762.071          33.030           0.000           0.000           0.000           0.000
> 17 07 17 11 46 46.000338  0  9
G05  24903960.048       37945.147       -1488.067          36.028           0.000           0.000           0.000           0.000
G16  22054850.346      -64082.771        2493.851          26.564           0.000           0.000           0.000           0.000
G18  24083814.525      -66565.745        2593.750          31.681           0.000           0.000           0.000           0.000
G20  23049117.131      -16412.043         630.921          33.881           0.000           0.000           0.000           0.000
G21  20971717.883       -2316.139          81.832          34.148           0.000           0.000           0.000           0.000
G25  24622842.860       87555.577       -3415.833          22.846           0.000           0.000           0.000           0.000
G26  20728667.442      -31105.347        1205.568          35.922           0.000           0.000           0.000           0.000
G29  22452319.684       69167.614       -2699.548          37.248           0.000           0.000           0.000           0.000
G31  22079069.678       70681.672       -2762.096          34.509           0.000           0.000           0.000           0.000
> 17 07 17 11 46 47.000337  0  9
G05  24904152.515       39434.281       -1489.534          37.530           0.000           0.000           0.000           0.000
G16  22054288.537      -66576.981        2494.296          28.452           0.000           0.000           0.000           0.000
G18  24083229.327      -69158.672        2592.738          29.754           0.000           0.000           0.000           0.000
G20  23048918.966      -17042.485         630.070          35.351           0.000           0.000           0.000           0.000
G21  20971617.754       -2397.681          80.968          33.750           0.000           0.000           0.000           0.000
G25  24623438.549       90973.194       -3417.605          23.684           0.000           0.000           0.000           0.000
G26  20728350.865      -32310.815        1204.976          37.313           0.000           0.000           0.000           0.000
G29  22452764.878       71867.469       -2699.973          38.184           0.000           0.000           0.000           0.000
G31  22079513.372       73444.485       -2763.161          32.406           0.000           0.000           0.000           0.000
> 17 07 17 11 46 48.000337  0  9
G05  24904437.019       40924.868       -1491.437          35.329           0.000           0.000           0.000           0.000
G16  22053801.074      -69069.964        2492.626          26.498           0.000           0.000           0.000           0.000
G18  24082730.775      -71750.763        2591.859          29.132           0.000           0.000           0.000           0.000
G20  23048806.844      -17671.439         628.073          33.813           0.000           0.000           0.000           0.000
G21  20971602.162       -2477.714          79.158          34.060           0.000           0.000           0.000           0.000
G25  24624096.894       94391.840       -3417.466          21.140           0.000           0.000           0.000           0.000
G26  20728126.019      -33515.027        1203.468          36.543           0.000           0.000           0.000           0.000
G29  22453273.622       74568.312       -2701.265          36.906           0.000           0.000           0.000           0.000
G31  22080029.615       76208.424       -2764.515          31.090           0.000           0.000           0.000           0.000
> 17 07 17 11 46 49.000337  0  9
G05  24904730.218       42416.527       -1491.841          34.436           0.000           0.000           0.000           0.000
G16  22053323.801      -71562.081        2492.233          27.468           0.000           0.000           0.000           0.000
G18  24082245.410      -74342.117        2591.118          30.292           0.000           0.000           0.000           0.000
G20  23048683.030      -18299.207         627.479          33.838           0.000           0.000           0.000           0.000
G21  20971588.673       -2556.734          78.683          34.733           0.000           0.000           0.000           0.000
G25  24624718.065       97811.649       -3415.556          20.771           0.000           0.000           0.000           0.000
G26  20727899.676      -34718.099        1203.035          37.508           0.000           0.000           0.000           0.000
G29  22453794.965       77269.870       -2701.193          37.773           0.000           0.000           0.000           0.000
G31  22080563.247       78973.602       -2765.954          28.885           0.000           0.000           0.000           0.000
> 17 07 17 11 46 50.000337  0  9
G05  24904924.478       43908.758       -1492.374          35.873           0.000           0.000           0.000           0.000
G16  22052759.889      -74053.886        2491.576          26.309           0.000           0.000           0.000           0.000
G18  24081671.302      -76933.623        2592.074          29.714           0.000           0.000           0.000           0.000
G20  23048484.565      -18926.477         626.580          35.001           0.000           0.000           0.000           0.000
G21  20971500.829       -2635.311          77.757          34.001           0.000           0.000           0.000           0.000
G25  24625305.055      101226.493       -3415.646          22.041           0.000           0.000           0.000           0.000
G26  20727585.790      -35920.801        1202.456          35.460           0.000           0.000           0.000           0.000
G29  22454228.157       79971.369       -2701.255          38.055           0.000           0.000           0.000           0.000
G31  22081010.535       81738.818       -2766.010          31.747           0.000           0.000           0.000           0.000
> 17 07 17 11 46 51.000337  0  9
G05  24905207.782       45402.298       -1494.337          35.221           0.000           0.000           0.000           0.000
G16  22052301.506      -76546.112        2491.670          28.609           0.000           0.000           0.000           0.000
G18  24081182.940      -79523.984        2589.488          35.537           0.000           0.000           0.000           0.000
G20  23048352.357      -19553.196         626.552          35.506           0.000           0.000           0.000           0.000
G21  20971488.238       -2713.472          78.763          37.755           0.000           0.000           0.000           0.000
G25  24625990.980      104644.122       -3421.998          23.748           0.000           0.000           0.000           0.000
G26  20727347.154      -37123.389        1203.349          34.589           0.000           0.000           0.000           0.000
G29  22454743.803       82672.749       -2701.494          38.439           0.000           0.000           0.000           0.000
G31  22081525.875       84505.132       -2766.288          36.285           0.000           0.000           0.000           0.000
> 17 07 17 11 46 52.000337  0  9
G05  24905467.402       46894.270       -1489.473          31.584           0.000           0.000           0.000           0.000
G16  22051823.938      -79040.792        2496.605          34.175           0.000           0.000           0.000           0.000
G18  24080691.582      -82112.505        2592.342          35.227           0.000           0.000           0.000           0.000
G20  23048241.134      -20179.586         622.967          32.759           0.000           0.000           0.000           0.000
G21  20971475.648       -2789.797          75.740          37.557           0.000           0.000           0.000           0.000
G25  24626622.342      108068.453       -3423.111          28.544           0.000           0.000           0.000           0.000
G26  20727128.307      -38327.393        1203.379          40.747           0.000           0.000           0.000           0.000
G29  22455270.537       85367.595       -2701.262          34.904           0.000           0.000           0.000           0.000
G31  22082054.110       87270.902       -2765.275          41.004           0.000           0.000           0.000           0.000
> 17 07 17 11 46 53.000337  0  9
G05  24905757.599       48389.210       -1494.273          30.013           0.000           0.000           0.000           0.000
G16  22051343.673      -81532.281        2490.404          40.216           0.000           0.000           0.000           0.000
G18  24080257.782      -84702.589        2587.501          31.071           0.000           0.000           0.000           0.000
G20  23048169.483      -20805.754         625.956          28.130           0.000           0.000           0.000           0.000
G21  20971459.459       -2865.807          76.670          33.602           0.000           0.000           0.000           0.000
G25  24627280.088      111489.511       -3421.076          26.855           0.000           0.000           0.000           0.000
G26  20726894.470      -39528.723        1200.925          41.910           0.000           0.000           0.000           0.000
G29  22455775.089       88068.748       -2702.612          31.818           0.000           0.000           0.000           0.000
G31  22082578.446       90038.468       -2766.750          45.762           0.000           0.000           0.000           0.000
> 17 07 17 11 46 54.000337  0  9
G05  24906015.723       49883.780       -1497.791          29.055           0.000           0.000           0.000           0.000
G16  22050804.047      -84021.889        2491.308          38.788           0.000           0.000           0.000           0.000
G18  24079610.833      -87295.432        2589.595          31.394           0.000           0.000           0.000           0.000
G20  23047942.840      -21431.005         623.624          29.627           0.000           0.000           0.000           0.000
G21  20971366.523       -2942.378          75.891          37.715           0.000           0.000           0.000           0.000
G25  24627858.986      114912.785       -3418.802          26.554           0.000           0.000           0.000           0.000
G26  20726591.080      -40729.723        1200.978          38.787           0.000           0.000           0.000           0.000
G29  22456233.471       90771.415       -2702.627          32.711           0.000           0.000           0.000           0.000
G31  22083029.935       92804.941       -2767.970          44.605           0.000           0.000           0.000           0.000
> 17 07 17 11 46 55.000337  0  9
G05  24906270.549       51383.268       -1495.063          26.193           0.000           0.000           0.000           0.000
G16  22050341.764      -86512.106        2485.638          34.318           0.000           0.000           0.000           0.000
G18  24079126.066      -89887.495        2589.878          30.692           0.000           0.000           0.000           0.000
G20  23047795.944      -22055.773         623.200          32.676           0.000           0.000           0.000           0.000
G21  20971354.234       -3017.941          75.148          38.432           0.000           0.000           0.000           0.000
G25  24628495.448      118333.851       -3418.719          24.819           0.000           0.000           0.000           0.000
G26  20726364.437      -41930.288        1198.773          34.089           0.000           0.000           0.000           0.000
G29  22456733.825       93473.640       -2702.623          39.122           0.000           0.000           0.000           0.000
G31  22083554.873       95572.519       -2768.651          40.764           0.000           0.000           0.000           0.000
> 17 07 17 11 46 56.000337  0  9
G05  24906523.271       52880.104       -1496.204          23.379           0.000           0.000           0.000           0.000
G16  22049857.900      -89002.176        2490.312          29.825           0.000           0.000           0.000           0.000
G18  24078626.313      -92478.162        2592.753          27.827           0.000           0.000           0.000           0.000
G20  23047669.731      -22679.226         624.684          31.952           0.000           0.000           0.000           0.000
G21  20971346.438       -3092.881          77.131          33.846           0.000           0.000           0.000           0.000
G25  24629161.885      121754.702       -3419.443          24.125           0.000           0.000           0.000           0.000
G26  20726142.588      -43130.136        1201.653          33.098           0.000           0.000           0.000           0.000
G29  22457248.869       96176.418       -2700.452          37.924           0.000           0.000           0.000           0.000
G31  22084088.801       98340.734       -2765.814          35.373           0.000           0.000           0.000           0.000
> 17 07 17 11 46 57.000336  0  9
G05  24906728.032       54374.157       -1493.546          21.246           0.000           0.000           0.000           0.000
G16  22049318.876      -91494.959        2494.966          26.464           0.000           0.000           0.000           0.000
G18  24078069.900      -95071.652        2594.427          26.740           0.000           0.000           0.000           0.000
G20  23047484.458      -23304.332         622.173          30.195           0.000           0.000           0.000           0.000
G21  20971257.699       -3169.633          73.788          32.821           0.000           0.000           0.000           0.000
G25  24629705.110      125173.491       -3416.769          22.456           0.000           0.000           0.000           0.000
G26  20725837.401      -44331.901        1198.613          33.420           0.000           0.000           0.000           0.000
G29  22457679.972       98877.036       -2703.001          34.667           0.000           0.000           0.000           0.000
G31  22084537.595      101106.967       -2769.317          36.391           0.000           0.000           0.000           0.000
> 17 07 17 11 46 58.000336  0  9
G05  24907032.320       55867.288       -1499.848          19.602           0.000           0.000           0.000           0.000
G16  22048837.407      -93983.084        2487.619          26.710           0.000           0.000           0.000           0.000
G18  24077579.440      -97667.218        2588.616          24.103           0.000           0.000           0.000           0.000
G20  23047366.040      -23923.681         619.477          30.799           0.000           0.000           0.000           0.000
G21  20971240.014       -3236.215          68.633          32.482           0.000           0.000           0.000           0.000
G25  24630344.569      128598.608       -3423.840          19.658           0.000           0.000           0.000           0.000
G26  20725611.656      -45527.732        1194.806          31.371           0.000           0.000           0.000           0.000
G29  22458193.815      101583.058       -2705.286          33.559           0.000           0.000           0.000           0.000
G31  22085059.230      103872.402       -2773.094          36.740           0.000           0.000           0.000           0.000
> 17 07 17 11 46 59.000336  0  9
G05  24907309.927       57359.106       -1499.336          17.936           0.000           0.000           0.000           0.000
G16  22048358.639      -96469.911        2487.225          30.182           0.000           0.000           0.000           0.000
G18  24077089.577     -100253.831        2587.032          22.800           0.000           0.000           0.000           0.000
G20  23047258.416      -24542.422         618.836          29.070           0.000           0.000           0.000           0.000
G21  20971226.223       -3308.914          75.173          30.690           0.000           0.000           0.000           0.000
G25  24631024.198      132022.754       -3423.159          22.276           0.000           0.000           0.000           0.000
G26  20725373.321      -46723.723        1196.114          32.492           0.000           0.000           0.000           0.000
G29  22458696.569      104288.818       -2704.516          30.161           0.000           0.000           0.000           0.000
G31  22085594.960      106644.545       -2771.568          34.704           0.000           0.000           0.000           0.000
> 17 07 17 11 47 00.000336  0  9
G05  24907520.381       58855.138       -1499.955          15.485           0.000           0.000           0.000           0.000
G16  22047794.429      -98959.265        2490.522          27.864           0.000           0.000           0.000           0.000
G18  24076514.575     -102835.777        2587.373          23.946           0.000           0.000           0.000           0.000
G20  23047050.959      -25163.696         621.417          30.366           0.000           0.000           0.000           0.000
G21  20971137.485       -3387.060          73.994          29.664           0.000           0.000           0.000           0.000
G25  24631624.381      135442.614       -3416.002          23.180           0.000           0.000           0.000           0.000
G26  20725073.832      -47921.917        1198.576          33.565           0.000           0.000           0.000           0.000
G29  22459147.457      106991.946       -2701.717          31.552           0.000           0.000           0.000           0.000
G31  22086040.752      109414.137       -2768.711          32.784           0.000           0.000           0.000           0.000
> 17 07 17 11 47 01.000336  0  9
G05  24907777.305       60353.164       -1498.562          16.904           0.000           0.000           0.000           0.000
G16  22047321.057     -101448.826        2489.020          27.482           0.000           0.000           0.000           0.000
G18  24076004.030     -105428.984        2590.655          26.080           0.000           0.000           0.000           0.000
G20  23046940.338      -25784.790         621.391          30.868           0.000           0.000           0.000           0.000
G21  20971117.099       -3460.053          72.868          33.503           0.000           0.000           0.000           0.000
G25  24632275.833      138864.769       -3421.301          22.313           0.000           0.000           0.000           0.000
G26  20724845.687      -49120.170        1198.292          34.066           0.000           0.000           0.000           0.000
G29  22459670.296      109694.877       -2702.557          34.318           0.000           0.000           0.000           0.000
G31  22086563.290      112183.763       -2769.509          34.701           0.000           0.000           0.000           0.000
> 17 07 17 11 47 02.000336  0  9
G05  24908086.392       61858.269       -1500.533          18.198           0.000           0.000           0.000           0.000
G16  22046844.688     -103938.448        2489.773          25.132           0.000           0.000           0.000           0.000
G18  24075488.389     -108020.444        2594.939          23.800           0.000           0.000           0.000           0.000
G20  23046808.729      -26405.357         620.409          34.048           0.000           0.000           0.000           0.000
G21  20971104.207       -3532.673          72.580          34.693           0.000           0.000           0.000           0.000
G25  24632921.582      142291.611       -3422.131          19.886           0.000           0.000           0.000           0.000
G26  20724620.244      -50318.237        1197.891          35.135           0.000           0.000           0.000           0.000
G29  22460171.248      112397.484       -2702.835          36.105           0.000           0.000           0.000           0.000
G31  22087097.223      114953.753       -2770.525          32.536           0.000           0.000           0.000           0.000
> 17 07 17 11 47 03.000336  0  9
G05  24908313.633       63364.420       -1501.603          18.254           0.000           0.000           0.000           0.000
G16  22046303.265     -106427.247        2488.332          24.000           0.000           0.000           0.000           0.000
G18  24074949.361     -110610.116        2589.288          22.428           0.000           0.000           0.000           0.000
G20  23046615.664      -27024.430         618.697          34.065           0.000           0.000           0.000           0.000
G21  20971022.065       -3603.802          71.051          33.621           0.000           0.000           0.000           0.000
G25  24633463.909      145717.377       -3422.761          18.905           0.000           0.000           0.000           0.000
G26  20724309.359      -51514.908        1196.353          32.523           0.000           0.000           0.000           0.000
G29  22460612.542      115101.264       -2704.169          34.830           0.000           0.000           0.000           0.000
G31  22087536.419      117724.923       -2772.165          30.892           0.000           0.000           0.000           0.000
> 17 07 17 11 47 04.000336  0  9
G05  24908584.648       64863.583       -1497.936          14.431           0.000           0.000           0.000           0.000
G16  22045812.804     -108914.912        2481.187          21.735           0.000           0.000           0.000           0.000
G18  24074472.389     -113199.982        2589.893          26.118           0.000           0.000           0.000           0.000
G20  23046504.737      -27642.688         618.087          33.635           0.000           0.000           0.000           0.000
G21  20971000.479       -3673.936          70.186          31.638           0.000           0.000           0.000           0.000
G25  24634127.349      149140.458       -3422.221          16.178           0.000           0.000           0.000           0.000
G26  20724087.816      -52710.842        1195.428          32.269           0.000           0.000           0.000           0.000
G29  22461132.982      117805.383       -2703.974          32.435           0.000           0.000           0.000           0.000
G31  22088069.449      120496.716       -2771.289          28.274           0.000           0.000           0.000           0.000
> 17 07 17 11 47 05.000336  0  9
G05  24908880.242       66356.079       -1500.197          15.916           0.000           0.000           0.000           0.000
G16  22045409.281     -111402.764        2486.021          21.258           0.000           0.000           0.000           0.000
G18  24073969.339     -115789.871        2589.646          28.208           0.000           0.000           0.000           0.000
G20  23046388.117      -28260.525         617.339          33.689           0.000           0.000           0.000           0.000
G21  20970991.488       -3743.870          69.381          31.579           0.000           0.000           0.000           0.000
G25  24634776.998      152565.159       -3421.253          13.346           0.000           0.000           0.000           0.000
G26  20723853.677      -53906.587        1195.125          30.381           0.000           0.000           0.000           0.000
G29  22461636.935      120509.456       -2704.343          34.727           0.000           0.000           0.000           0.000
G31  22088612.072      123268.732       -2772.535          27.066           0.000           0.000           0.000           0.000
> 17 07 17 11 47 06.000336  0  9
G05  24909059.216       67854.323       -1499.721          14.976           0.000           0.000           0.000           0.000
G16  22044824.385     -113890.244        2488.414          21.636           0.000           0.000           0.000           0.000
G18  24073414.719     -118379.613        2589.677          28.326           0.000           0.000           0.000           0.000
G20  23046189.355      -28877.717         616.838          32.735           0.000           0.000           0.000           0.000
G21  20970903.342       -3813.224          68.851          30.794           0.000           0.000           0.000           0.000
G25  24635351.098      155990.796       -3422.441          16.766           0.000           0.000           0.000           0.000
G26  20723552.683      -55101.803        1194.791          30.410           0.000           0.000           0.000           0.000
G29  22462087.517      123213.723       -2704.611          35.404           0.000           0.000           0.000           0.000
G31  22089045.872      126041.124       -2772.335          26.331           0.000           0.000           0.000           0.000
> 17 07 17 11 47 07.000336  0  9
G05  24909323.931       69357.319       -1497.843          14.340           0.000           0.000           0.000           0.000
G16  22044356.706     -116377.694        2487.736          25.294           0.000           0.000           0.000           0.000
G18  24072913.465     -120969.192        2589.481          27.476           0.000           0.000           0.000           0.000
G20  23046075.732      -29494.185         616.317          30.808           0.000           0.000           0.000           0.000
G21  20970885.355       -3881.980          68.548          30.525           0.000           0.000           0.000           0.000
G25  24635977.665      159416.362       -3420.909          14.083           0.000           0.000           0.000           0.000
G26  20723328.435      -56296.327        1193.691          28.476           0.000           0.000           0.000           0.000
G29  22462598.665      125918.239       -2704.439          34.379           0.000           0.000           0.000           0.000
G31  22089590.593      128814.439       -2771.532          22.636           0.000           0.000           0.000           0.000
> 17 07 17 11 47 08.000336  0  9
G05  24909596.743       70852.675       -1497.206          17.022           0.000           0.000           0.000           0.000
G16  22043893.228     -118864.432        2486.933          27.260           0.000           0.000           0.000           0.000
G18  24072437.397     -123558.514        2587.789          24.955           0.000           0.000           0.000           0.000
G20  23045956.115      -30109.929         615.377          31.678           0.000           0.000           0.000           0.000
G21  20970867.966       -3950.058          67.332          29.381           0.000           0.000           0.000           0.000
G25  24636602.435      162837.654       -3422.931          16.860           0.000           0.000           0.000           0.000
G26  20723070.913      -57490.580        1195.633          24.332           0.000           0.000           0.000           0.000
G29  22463111.012      128622.953       -2704.791          35.059           0.000           0.000           0.000           0.000
G31  22090115.230      131592.801       -2775.350          21.908           0.000           0.000           0.000           0.000
> 17 07 17 11 47 09.000335  0  9
G05  24909798.503       72354.864       -1501.939          19.180           0.000           0.000           0.000           0.000
G16  22043340.711     -121351.154        2487.150          26.770           0.000           0.000           0.000           0.000
G18  24071854.002     -126147.877        2588.489          26.036           0.000           0.000           0.000           0.000
G20  23045755.556      -30724.993         615.037          29.817           0.000           0.000           0.000           0.000
G21  20970784.628       -4017.571          66.587          29.970           0.000           0.000           0.000           0.000
G25  24637224.505      166251.711       -3422.154          16.040           0.000           0.000           0.000           0.000
G26  20722786.413      -58684.119        1192.192          25.452           0.000           0.000           0.000           0.000
G29  22463558.902      131327.862       -2704.826          32.735           0.000           0.000           0.000           0.000
G31  22090543.336      134369.773       -2774.804          28.207           0.000           0.000           0.000           0.000
> 17 07 17 11 47 10.000335  0  9
G05  24910085.406       73862.867       -1503.441          18.549           0.000           0.000           0.000           0.000
G16  22042856.847     -123837.435        2485.828          25.349           0.000           0.000           0.000           0.000
G18  24071347.051     -128736.975        2589.784          25.477           0.000           0.000           0.000           0.000
G20  23045640.432      -31339.400         614.180          33.289           0.000           0.000           0.000           0.000
G21  20970761.843       -4084.416          66.880          31.062           0.000           0.000           0.000           0.000
G25  24637885.846      169675.808       -3422.730          20.956           0.000           0.000           0.000           0.000
G26  20722581.055      -59877.224        1192.826          24.601           0.000           0.000           0.000           0.000
G29  22464052.661      134032.925       -2704.871          35.882           0.000           0.000           0.000           0.000
G31  22091086.557      137144.447       -2774.938          34.685           0.000           0.000           0.000           0.000
> 17 07 17 11 47 11.000335  0  9
G05  24910352.822       75373.561       -1503.405          15.565           0.000           0.000           0.000           0.000
G16  22042386.472     -126323.468        2486.466          23.915           0.000           0.000           0.000           0.000
G18  24070858.689     -131325.909        2588.772          26.995           0.000           0.000           0.000           0.000
G20  23045533.109      -31953.058         613.150          34.318           0.000           0.000           0.000           0.000
G21  20970756.747       -4150.501          66.108          31.164           0.000           0.000           0.000           0.000
G25  24638548.689      173100.046       -3421.166          21.447           0.000           0.000           0.000           0.000
G26  20722324.432      -61070.018        1190.354          24.484           0.000           0.000           0.000           0.000
G29  22464571.901      136738.418       -2705.668          34.078           0.000           0.000           0.000           0.000
G31  22091613.593      139919.456       -2775.075          35.696           0.000           0.000           0.000           0.000
> 17 07 17 11 47 12.000335  0  9
G05  24910628.029       76881.514       -1506.697          21.748           0.000           0.000           0.000           0.000
G16  22041815.069     -128803.705        2487.212          24.198           0.000           0.000           0.000           0.000
G18  24070297.482     -133914.633        2588.746          28.674           0.000           0.000           0.000           0.000
G20  23045327.449      -32565.948         612.474          32.052           0.000           0.000           0.000           0.000
G21  20970669.509       -4216.011          64.990          33.240           0.000           0.000           0.000           0.000
G25  24639110.197      176524.490       -3425.373          22.854           0.000           0.000           0.000           0.000
G26  20722044.426      -62263.341        1190.805          28.358           0.000           0.000           0.000           0.000
G29  22465001.804      139443.877       -2705.792          32.544           0.000           0.000           0.000           0.000
G31  22092061.182      142694.877       -2775.254          36.828           0.000           0.000           0.000           0.000
> 17 07 17 11 47 13.000335  0  9
G05  24910858.870       78388.410       -1508.275          22.563           0.000           0.000           0.000           0.000
G16  22041356.686     -131289.069        2490.294          24.294           0.000           0.000           0.000           0.000
G18  24069804.020     -136503.283        2588.924          27.670           0.000           0.000           0.000           0.000
G20  23045227.320      -33178.462         611.982          33.991           0.000           0.000           0.000           0.000
G21  20970657.813       -4280.952          65.108          32.484           0.000           0.000           0.000           0.000
G25  24639791.026      179948.859       -3424.304          20.695           0.000           0.000           0.000           0.000
G26  20721808.490      -63454.864        1191.285          31.865           0.000           0.000           0.000           0.000
G29  22465536.330      142149.709       -2705.818          32.695           0.000           0.000           0.000           0.000
G31  22092591.516      145471.013       -2775.564          36.168           0.000           0.000           0.000           0.000
> 17 07 17 11 47 14.000335  0  9
G05  24911199.733       79895.800       -1507.825          23.980           0.000           0.000           0.000           0.000
G16  22040900.402     -133773.969        2485.309          23.391           0.000           0.000           0.000           0.000
G18  24069302.470     -139091.899        2588.263          26.382           0.000           0.000           0.000           0.000
G20  23045110.404      -33790.182         611.232          33.518           0.000           0.000           0.000           0.000
G21  20970635.931       -4345.215          63.927          31.664           0.000           0.000           0.000           0.000
G25  24640435.280      183373.663       -3425.034          23.928           0.000           0.000           0.000           0.000
G26  20721578.850      -64645.914        1190.519          36.778           0.000           0.000           0.000           0.000
G29  22466046.880      144855.666       -2706.072          31.488           0.000           0.000           0.000           0.000
G31  22093115.555      148247.584       -2776.820          32.784           0.000           0.000           0.000           0.000
> 17 07 17 11 47 15.000335  0  9
G05  24911477.044       81403.730       -1507.765          23.636           0.000           0.000           0.000           0.000
G16  22040426.729     -136260.449        2479.120          20.756           0.000           0.000           0.000           0.000
G18  24068801.217     -141680.332        2589.032          25.695           0.000           0.000           0.000           0.000
G20  23044995.280      -34401.233         610.405          33.283           0.000           0.000           0.000           0.000
G21  20970624.837       -4409.053          63.409          33.777           0.000           0.000           0.000           0.000
G25  24641066.345      186798.654       -3425.930          24.751           0.000           0.000           0.000           0.000
G26  20721354.606      -65836.512        1189.938          36.480           0.000           0.000           0.000           0.000
G29  22466564.323      147561.842       -2705.497          29.004           0.000           0.000           0.000           0.000
G31  22093647.084      151024.320       -2776.633          35.114           0.000           0.000           0.000           0.000
> 17 07 17 11 47 16.000335  0  9
G05  24911665.912       82912.599       -1509.483          24.842           0.000           0.000           0.000           0.000
G16  22039843.033     -138738.489        2479.668          20.476           0.000           0.000           0.000           0.000
G18  24068244.799     -144268.543        2588.363          27.175           0.000           0.000           0.000           0.000
G20  23044794.419      -35011.696         609.796          32.629           0.000           0.000           0.000           0.000
G21  20970540.596       -4472.213          62.663          37.422           0.000           0.000           0.000           0.000
G25  24641668.329      190223.915       -3430.556          21.364           0.000           0.000           0.000           0.000
G26  20721054.514      -67026.565        1189.781          36.243           0.000           0.000           0.000           0.000
G29  22467009.513      150268.287       -2706.665          30.118           0.000           0.000           0.000           0.000
G31  22094093.177      153801.784       -2777.713          36.863           0.000           0.000           0.000           0.000
> 17 07 17 11 47 17.000335  0  9
G05  24911972.002       84422.017       -1509.866          25.617           0.000           0.000           0.000           0.000
G16  22039379.555     -141211.071        2479.971          17.203           0.000           0.000           0.000           0.000
G18  24067734.254     -146856.664        2587.879          26.818           0.000           0.000           0.000           0.000
G20  23044683.200      -35621.344         609.002          33.341           0.000           0.000           0.000           0.000
G21  20970525.008       -4534.681          62.159          37.565           0.000           0.000           0.000           0.000
G25  24642302.091      193654.138       -3432.004          17.475           0.000           0.000           0.000           0.000
G26  20720824.573      -68215.966        1188.977          36.002           0.000           0.000           0.000           0.000
G29  22467511.665      152974.822       -2706.880          31.050           0.000           0.000           0.000           0.000
G31  22094622.612      156579.698       -2777.832          36.159           0.000           0.000           0.000           0.000
> 17 07 17 11 47 18.000335  0  9
G05  24912210.934       85932.328       -1511.356          24.627           0.000           0.000           0.000           0.000
G16  22038889.993     -143686.302        2482.097          20.357           0.000           0.000           0.000           0.000
G18  24067255.786     -149444.444        2587.841          27.795           0.000           0.000           0.000           0.000
G20  23044566.877      -36230.373         608.765          34.635           0.000           0.000           0.000           0.000
G21  20970519.612       -4596.448          61.441          38.092           0.000           0.000           0.000           0.000
G25  24642959.833      197092.114       -3432.872          14.441           0.000           0.000           0.000           0.000
G26  20720600.625      -69404.923        1188.582          37.523           0.000           0.000           0.000           0.000
G29  22468037.501      155681.716       -2706.418          33.076           0.000           0.000           0.000           0.000
G31  22095153.243      159358.286       -2778.900          35.345           0.000           0.000           0.000           0.000
> 17 07 17 11 47 19.000335  0  9
G05  24912433.084       87442.764       -1507.218          23.334           0.000           0.000           0.000           0.000
G16  22038355.166     -146169.912        2483.152          21.921           0.000           0.000           0.000           0.000
G18  24066690.378     -152032.451        2588.177          26.731           0.000           0.000           0.000           0.000
G20  23044370.815      -36838.841         608.180          35.472           0.000           0.000           0.000           0.000
G21  20970425.180       -4657.835          61.160          37.718           0.000           0.000           0.000           0.000
G25  24643536.336      200526.779       -3430.693          19.532           0.000           0.000           0.000           0.000
G26  20720296.040      -70593.507        1188.331          38.677           0.000           0.000           0.000           0.000
G29  22468471.902      158388.679       -2706.957          34.237           0.000           0.000           0.000           0.000
G31  22095605.631      162137.046       -2778.925          34.458           0.000           0.000           0.000           0.000
> 17 07 17 11 47 20.000335  0  9
G05  24912766.152       88954.012       -1504.405          22.174           0.000           0.000           0.000           0.000
G16  22037900.082     -148655.901        2488.467          20.128           0.000           0.000           0.000           0.000
G18  24066183.431     -154620.998        2589.703          25.686           0.000           0.000           0.000           0.000
G20  23044251.796      -37446.716         607.568          33.882           0.000           0.000           0.000           0.000
G21  20970409.889       -4718.540          59.976          35.882           0.000           0.000           0.000           0.000
G25  24644185.087      203957.705       -3425.792          20.777           0.000           0.000           0.000           0.000
G26  20720069.096      -71781.606        1188.252          38.214           0.000           0.000           0.000           0.000
G29  22468992.342      161095.623       -2707.750          34.189           0.000           0.000           0.000           0.000
G31  22096136.864      164916.401       -2779.467          35.222           0.000           0.000           0.000           0.000
> 17 07 17 11 47 21.000335  0  9
G05  24913007.785       90456.417       -1506.514          21.607           0.000           0.000           0.000           0.000
G16  22037419.812     -151149.921        2486.544          21.795           0.000           0.000           0.000           0.000
G18  24065688.172     -157208.877        2588.517          23.612           0.000           0.000           0.000           0.000
G20  23044144.774      -38054.132         606.998          36.538           0.000           0.000           0.000           0.000
G21  20970408.092       -4778.992          60.020          35.580           0.000           0.000           0.000           0.000
G25  24644824.843      207384.845       -3422.167          17.383           0.000           0.000           0.000           0.000
G26  20719843.050      -72969.295        1187.051          37.901           0.000           0.000           0.000           0.000
G29  22469514.579      163802.676       -2707.629          33.762           0.000           0.000           0.000           0.000
G31  22096660.902      167695.816       -2780.060          37.379           0.000           0.000           0.000           0.000
> 17 07 17 11 47 22.000335  0  9
G05  24913286.291       91962.867       -1512.690          21.777           0.000           0.000           0.000           0.000
G16  22036863.098     -153635.102        2479.325          25.339           0.000           0.000           0.000           0.000
G18  24065115.269     -159796.456        2587.739          24.165           0.000           0.000           0.000           0.000
G20  23043950.505      -38660.749         606.216          34.418           0.000           0.000           0.000           0.000
G21  20970321.451       -4838.664          59.370          36.337           0.000           0.000           0.000           0.000
G25  24645436.124      210812.256       -3424.452          21.476           0.000           0.000           0.000           0.000
G26  20719530.072      -74156.466        1186.710          35.520           0.000           0.000           0.000           0.000
G29  22469935.788      166509.930       -2707.664          33.936           0.000           0.000           0.000           0.000
G31  22097116.288      170475.958       -2780.744          37.182           0.000           0.000           0.000           0.000
> 17 07 17 11 47 23.000335  0  9
G05  24913509.937       93476.067       -1515.545          21.803           0.000           0.000           0.000           0.000
G16  22036400.519     -156117.317        2482.146          26.286           0.000           0.000           0.000           0.000
G18  24064639.200     -162383.832        2587.556          25.988           0.000           0.000           0.000           0.000
G20  23043831.490      -39266.591         605.655          33.834           0.000           0.000           0.000           0.000
G21  20970303.164       -4897.710          58.994          36.444           0.000           0.000           0.000           0.000
G25  24646084.870      214238.573       -3429.898          18.201           0.000           0.000           0.000           0.000
G26  20719314.518      -75343.166        1186.460          34.510           0.000           0.000           0.000           0.000
G29  22470464.324      169217.521       -2706.839          33.025           0.000           0.000           0.000           0.000
G31  22097647.520      173256.626       -2780.889          36.523           0.000           0.000           0.000           0.000
> 17 07 17 11 47 24.000335  0  9
G05  24913819.024       94990.417       -1511.601          23.153           0.000           0.000           0.000           0.000
G16  22035920.551     -158599.297        2481.465          26.016           0.000           0.000           0.000           0.000
G18  24064136.748     -164971.101        2587.276          27.296           0.000           0.000           0.000           0.000
G20  23043724.163      -39871.756         604.999          35.254           0.000           0.000           0.000           0.000
G21  20970299.866       -4956.009          58.047          36.097           0.000           0.000           0.000           0.000
G25  24646715.635      217659.686       -3427.824          19.842           0.000           0.000           0.000           0.000
G26  20719083.381      -76529.177        1185.809          33.352           0.000           0.000           0.000           0.000
G29  22470976.370      171925.438       -2707.923          33.394           0.000           0.000           0.000           0.000
G31  22098169.160      176037.831       -2781.388          35.581           0.000           0.000           0.000           0.000
> 17 07 17 11 47 25.000334  0  9
G05  24914029.474       96505.049       -1515.236          24.224           0.000           0.000           0.000           0.000
G16  22035367.732     -161080.828        2481.053          27.603           0.000           0.000           0.000           0.000
G18  24063572.534     -167558.098        2586.694          27.608           0.000           0.000           0.000           0.000
G20  23043530.792      -40476.172         603.679          34.633           0.000           0.000           0.000           0.000
G21  20970211.725       -5013.733          57.316          36.599           0.000           0.000           0.000           0.000
G25  24647309.221      221080.005       -3426.143          14.511           0.000           0.000           0.000           0.000
G26  20718782.382      -77714.720        1185.159          33.314           0.000           0.000           0.000           0.000
G29  22471431.149      174633.526       -2708.071          31.559           0.000           0.000           0.000           0.000
G31  22098625.740      178819.512       -2782.035          35.777           0.000           0.000           0.000           0.000
> 17 07 17 11 47 26.000334  0  9
G05  24914263.612       98020.276       -1515.548          23.379           0.000           0.000           0.000           0.000
G16  22034910.545     -163562.040        2484.096          25.710           0.000           0.000           0.000           0.000
G18  24063079.674     -170145.105        2588.298          24.482           0.000           0.000           0.000           0.000
G20  23043412.977      -41079.946         603.540          36.078           0.000           0.000           0.000           0.000
G21  20970199.732       -5070.572          56.619          34.806           0.000           0.000           0.000           0.000
G25  24647938.184      224506.292       -3426.121          14.369           0.000           0.000           0.000           0.000
G26  20718558.439      -78899.668        1185.164          34.261           0.000           0.000           0.000           0.000
G29  22471925.510      177341.780       -2707.996          31.194           0.000           0.000           0.000           0.000
G31  22099150.974      181601.787       -2782.301          33.954           0.000           0.000           0.000           0.000
> 17 07 17 11 47 27.000334  0  8
G05  24914593.085       99536.318       -1518.586          22.079           0.000           0.000           0.000           0.000
G16  22034432.680     -166043.291        2477.536          23.634           0.000           0.000           0.000           0.000
G18  24062571.227     -172731.143        2589.480          22.638           0.000           0.000           0.000           0.000
G20  23043292.161      -41682.975         602.755          37.459           0.000           0.000           0.000           0.000
G21  20970182.343       -5127.049          56.303          32.155           0.000           0.000           0.000           0.000
G26  20718332.996      -80083.608        1184.593          33.154           0.000           0.000           0.000           0.000
G29  22472425.864      180050.345       -2709.120          32.251           0.000           0.000           0.000           0.000
G31  22099693.597      184384.346       -2783.238          31.966           0.000           0.000           0.000           0.000
> 17 07 17 11 47 28.000334  0  8
G05  24914815.833      101052.807       -1518.364          21.832           0.000           0.000           0.000           0.000
G16  22033875.966     -168523.887        2477.419          23.376           0.000           0.000           0.000           0.000
G18  24062054.387     -175317.595        2586.334          26.159           0.000           0.000           0.000           0.000
G20  23043105.090      -42285.246         601.767          37.043           0.000           0.000           0.000           0.000
G21  20970103.197       -5182.811          55.185          35.524           0.000           0.000           0.000           0.000
G26  20718032.603      -81267.392        1183.212          38.120           0.000           0.000           0.000           0.000
G29  22472881.847      182759.284       -2709.448          34.263           0.000           0.000           0.000           0.000
G31  22100133.993      187167.734       -2783.686          34.810           0.000           0.000           0.000           0.000
> 17 07 17 11 47 29.000334  0  8
G05  24915114.424      102570.644       -1515.639          19.959           0.000           0.000           0.000           0.000
G16  22033407.087     -170996.717        2477.194          23.776           0.000           0.000           0.000           0.000
G18  24061553.430     -177903.747        2586.210          24.892           0.000           0.000           0.000           0.000
G20  23042991.171      -42886.684         600.846          37.586           0.000           0.000           0.000           0.000
G21  20970087.012       -5237.762          54.662          37.265           0.000           0.000           0.000           0.000
G26  20717804.162      -82450.492        1182.553          39.316           0.000           0.000           0.000           0.000
G29  22473388.497      185468.486       -2709.561          36.403           0.000           0.000           0.000           0.000
G31  22100667.324      189951.813       -2784.672          35.219           0.000           0.000           0.000           0.000
> 17 07 17 11 47 30.000334  0  8
G05  24915403.726      104088.133       -1516.706          19.145           0.000           0.000           0.000           0.000
G16  22032937.013     -173476.522        2479.321          25.383           0.000           0.000           0.000           0.000
G18  24061097.448     -180489.804        2586.101          23.096           0.000           0.000           0.000           0.000
G20  23042878.145      -43487.474         600.438          36.502           0.000           0.000           0.000           0.000
G21  20970076.516       -5292.071          53.859          37.576           0.000           0.000           0.000           0.000
G26  20717582.017      -83633.091        1182.378          37.756           0.000           0.000           0.000           0.000
G29  22473902.641      188177.865       -2709.690          36.898           0.000           0.000           0.000           0.000
G31  22101193.160      192736.207       -2784.571          31.545           0.000           0.000           0.000           0.000
> 17 07 17 11 47 31.000334  0  8
G05  24915567.414      105607.012       -1518.371          21.047           0.000           0.000           0.000           0.000
G16  22032389.294     -175955.868        2479.243          27.121           0.000           0.000           0.000           0.000
G18  24060499.664     -183075.714        2586.121          23.006           0.000           0.000           0.000           0.000
G20  23042681.185      -44087.566         599.823          35.687           0.000           0.000           0.000           0.000
G21  20969986.878       -5345.663          53.287          37.279           0.000           0.000           0.000           0.000
G26  20717277.729      -84815.152        1181.712          39.256           0.000           0.000           0.000           0.000
G29  22474343.338      190887.494       -2709.868          37.731           0.000           0.000           0.000           0.000
G31  22101647.647      195521.196       -2785.289          33.105           0.000           0.000           0.000           0.000
> 17 07 17 11 47 32.000334  0  8
G05  24915844.720      107126.485       -1520.943          22.483           0.000           0.000           0.000           0.000
G16  22031914.125     -178435.028        2479.150          27.622           0.000           0.000           0.000           0.000
G18  24059993.015     -185661.399        2584.905          24.722           0.000           0.000           0.000           0.000
